{"type": "FeatureCollection", "features": [{"type": "Feature", "properties": {"city": "Beijing", "name": "Dongcheng Dongsi", "aqi": "59", "pm25": "59", "pm10": "30", "no2": "9", "so2": "4", "o3": "21", "co": "4", "temp": "2"}, "geometry": {"type": "Point", "coordinates": [116.417, 39.929]}}, {"type": "Feature", "properties": {"city": "Beijing", "name": "Temple of Heaven, Dongcheng", "aqi": "42", "pm25": "42", "pm10": "36", "no2": "12", "so2": "3", "o3": "21", "co": "4", "temp": "2"}, "geometry": {"type": "Point", "coordinates": [116.407, 39.886]}}, {"type": "Feature", "properties": {"city": "Beijing", "name": "West Park officials", "aqi": "53", "pm25": "53", "pm10": "29", "no2": "11", "so2": "3", "o3": "20", "co": "2", "temp": "2"}, "geometry": {"type": "Point", "coordinates": [116.339, 39.929]}}, {"type": "Feature", "properties": {"city": "Beijing", "name": "Wanshou Temple", "aqi": "42", "pm25": "42", "pm10": "25", "no2": "9", "so2": "2", "o3": "21", "co": "3", "temp": "2"}, "geometry": {"type": "Point", "coordinates": [116.352, 39.878]}}, {"type": "Feature", "properties": {"city": "Beijing", "name": "Chaoyang Olympic Sports Center", "aqi": "46", "pm25": "46", "pm10": "33", "no2": "11", "so2": "3", "o3": "21", "co": "4", "temp": "2"}, "geometry": {"type": "Point", "coordinates": [116.397, 39.982]}}, {"type": "Feature", "properties": {"city": "Beijing", "name": "Chaoyang Agricultural Exhibition Hall", "aqi": "61", "pm25": "61", "pm10": "30", "no2": "10", "so2": "3", "o3": "22", "co": "4", "temp": "2"}, "geometry": {"type": "Point", "coordinates": [116.461, 39.937]}}, {"type": "Feature", "properties": {"city": "Beijing", "name": "Haidian Wanliu", "aqi": "46", "pm25": "46", "pm10": "28", "no2": "10", "so2": "5", "o3": "21", "co": "4", "temp": "2"}, "geometry": {"type": "Point", "coordinates": [116.287, 39.987]}}, {"type": "Feature", "properties": {"city": "Beijing", "name": "The Haidian northern New Area", "aqi": "34", "pm25": "34", "pm10": "25", "no2": "6", "so2": "2", "o3": "24", "co": "2", "temp": "2"}, "geometry": {"type": "Point", "coordinates": [116.174, 40.09]}}, {"type": "Feature", "properties": {"city": "Beijing", "name": "Fengtai garden", "aqi": "30", "pm25": "30", "pm10": "23", "no2": "10", "so2": "3", "o3": "1", "co": "3", "temp": "2"}, "geometry": {"type": "Point", "coordinates": [116.279, 39.863]}}, {"type": "Feature", "properties": {"city": "Beijing", "name": "Fengtai Yungang", "aqi": "38", "pm25": "38", "pm10": "11", "no2": "7", "so2": "3", "o3": "23", "co": "2", "temp": "2"}, "geometry": {"type": "Point", "coordinates": [116.146, 39.824]}}, {"type": "Feature", "properties": {"city": "Beijing", "name": "Shijingshan city", "aqi": "50", "pm25": "50", "pm10": "20", "no2": "7", "so2": "2", "o3": "23", "co": "3", "temp": "2"}, "geometry": {"type": "Point", "coordinates": [116.184, 39.914]}}, {"type": "Feature", "properties": {"city": "Beijing", "name": "Fangshan, Liangxiang", "aqi": "172", "pm25": "172", "pm10": "83", "no2": "29", "so2": "2", "o3": "6", "co": "10", "temp": "2"}, "geometry": {"type": "Point", "coordinates": [116.136, 39.742]}}, {"type": "Feature", "properties": {"city": "Beijing", "name": "Huangcunzhen, Daxing", "aqi": "30", "pm25": "30", "pm10": "22", "no2": "11", "so2": "2", "o3": "22", "co": "5", "temp": "2"}, "geometry": {"type": "Point", "coordinates": [116.404, 39.718]}}, {"type": "Feature", "properties": {"city": "Beijing", "name": "BDA", "aqi": "61", "pm25": "61", "pm10": "22", "no2": "14", "so2": "3", "o3": "20", "co": "4", "temp": "2"}, "geometry": {"type": "Point", "coordinates": [113.796941, 34.000042]}}, {"type": "Feature", "properties": {"city": "Beijing", "name": "Tongzhou New Town", "aqi": "87", "pm25": "87", "pm10": "31", "no2": "10", "so2": "2", "o3": "20", "co": "4", "temp": "2"}, "geometry": {"type": "Point", "coordinates": [116.663, 39.886]}}, {"type": "Feature", "properties": {"city": "Beijing", "name": "Shunyi New Town", "aqi": "89", "pm25": "89", "pm10": "72", "no2": "6", "so2": "1", "o3": "24", "co": "4", "temp": "2"}, "geometry": {"type": "Point", "coordinates": [116.655, 40.127]}}, {"type": "Feature", "properties": {"city": "Beijing", "name": "Changping Town", "aqi": "61", "pm25": "61", "pm10": "35", "no2": "7", "so2": "2", "o3": "24", "co": "3", "temp": "2"}, "geometry": {"type": "Point", "coordinates": [116.23, 40.217]}}, {"type": "Feature", "properties": {"city": "Beijing", "name": "Mentougou, Longquan Town", "aqi": "53", "pm25": "53", "pm10": "22", "no2": "10", "so2": "2", "o3": "24", "co": "2", "temp": "2"}, "geometry": {"type": "Point", "coordinates": [116.106, 39.937]}}, {"type": "Feature", "properties": {"city": "Beijing", "name": "Pinggu town", "aqi": "70", "pm25": "70", "pm10": "33", "no2": "8", "so2": "1", "o3": "24", "co": "3", "temp": "2"}, "geometry": {"type": "Point", "coordinates": [117.1, 40.143]}}, {"type": "Feature", "properties": {"city": "Beijing", "name": "Huairou town", "aqi": "91", "pm25": "91", "pm10": "36", "no2": "11", "so2": "1", "o3": "20", "co": "5", "temp": "2"}, "geometry": {"type": "Point", "coordinates": [116.628, 40.328]}}, {"type": "Feature", "properties": {"city": "Beijing", "name": "The town of Miyun", "aqi": "78", "pm25": "78", "pm10": "24", "no2": "6", "so2": "1", "o3": "21", "co": "4", "temp": "2"}, "geometry": {"type": "Point", "coordinates": [116.832, 40.37]}}, {"type": "Feature", "properties": {"city": "Beijing", "name": "Yanqing town", "aqi": "42", "pm25": "42", "pm10": "10", "no2": "6", "so2": "3", "o3": "26", "co": "3", "temp": "2"}, "geometry": {"type": "Point", "coordinates": [115.972, 40.453]}}, {"type": "Feature", "properties": {"city": "Beijing", "name": "Changping Dingling", "aqi": "42", "pm25": "42", "pm10": "22", "no2": "4", "so2": "1", "o3": "29", "co": "3", "temp": "2"}, "geometry": {"type": "Point", "coordinates": [116.22, 40.292]}}, {"type": "Feature", "properties": {"city": "Beijing", "name": "Badaling Northwest", "aqi": "46", "pm25": "46", "pm10": "32", "no2": "9", "so2": "2", "o3": "22", "co": "4", "temp": "2"}, "geometry": {"type": "Point", "coordinates": [115.988, 40.365]}}, {"type": "Feature", "properties": {"city": "Beijing", "name": "Miyun Reservoir", "aqi": "63", "pm25": "63", "pm10": "-", "no2": "4", "so2": "1", "o3": "25", "co": "1", "temp": "2"}, "geometry": {"type": "Point", "coordinates": [116.911, 40.499]}}, {"type": "Feature", "properties": {"city": "Beijing", "name": "Donggaocun Zhen, Pinggu", "aqi": "80", "pm25": "80", "pm10": "29", "no2": "6", "so2": "2", "o3": "17", "co": "2", "temp": "2"}, "geometry": {"type": "Point", "coordinates": [117.12, 40.1]}}, {"type": "Feature", "properties": {"city": "Beijing", "name": "Yongledianzhen, Tongzhou", "aqi": "132", "pm25": "132", "pm10": "75", "no2": "13", "so2": "2", "o3": "18", "co": "4", "temp": "2"}, "geometry": {"type": "Point", "coordinates": [116.783, 39.712]}}, {"type": "Feature", "properties": {"city": "Beijing", "name": "Yufazhen, Daxing", "aqi": "183", "pm25": "183", "pm10": "63", "no2": "29", "so2": "2", "o3": "2", "co": "10", "temp": "2"}, "geometry": {"type": "Point", "coordinates": [116.3, 39.52]}}, {"type": "Feature", "properties": {"city": "Beijing", "name": "Liulihezhen, Fangshan", "aqi": "188", "pm25": "188", "pm10": "80", "no2": "19", "so2": "1", "o3": "9", "co": "10", "temp": "2"}, "geometry": {"type": "Point", "coordinates": [116.0, 39.58]}}, {"type": "Feature", "properties": {"city": "Beijing", "name": "Qianmen E St, Dongcheng", "aqi": "57", "pm25": "57", "pm10": "37", "no2": "10", "so2": "1", "o3": "22", "co": "6", "temp": "2"}, "geometry": {"type": "Point", "coordinates": [116.395, 39.899]}}, {"type": "Feature", "properties": {"city": "Beijing", "name": "Yongdingmen Inner St", "aqi": "57", "pm25": "57", "pm10": "31", "no2": "12", "so2": "3", "o3": "20", "co": "4", "temp": "2"}, "geometry": {"type": "Point", "coordinates": [116.394, 39.876]}}, {"type": "Feature", "properties": {"city": "Beijing", "name": "Xizhimen N St", "aqi": "42", "pm25": "42", "pm10": "26", "no2": "15", "so2": "2", "o3": "18", "co": "4", "temp": "2"}, "geometry": {"type": "Point", "coordinates": [116.349, 39.954]}}, {"type": "Feature", "properties": {"city": "Beijing", "name": "South Ring Road", "aqi": "42", "pm25": "42", "pm10": "33", "no2": "15", "so2": "3", "o3": "18", "co": "5", "temp": "2"}, "geometry": {"type": "Point", "coordinates": [116.368, 39.856]}}, {"type": "Feature", "properties": {"city": "Beijing", "name": "East Fourth Ring Road", "aqi": "46", "pm25": "46", "pm10": "31", "no2": "16", "so2": "4", "o3": "13", "co": "3", "temp": "2"}, "geometry": {"type": "Point", "coordinates": [116.483, 39.939]}}, {"type": "Feature", "properties": {"city": "Beijing", "name": "Beijing US Embassy", "aqi": "61", "pm25": "61", "pm10": "30", "no2": "10", "so2": "3", "o3": "22", "co": "5", "temp": "2"}, "geometry": {"type": "Point", "coordinates": [116.468117, 39.954592]}}, {"type": "Feature", "properties": {"city": "Shanghai", "name": "Putuo Monitoring Station", "aqi": "68", "pm25": "68", "pm10": "28", "no2": "38", "so2": "4", "o3": "11", "co": "7", "temp": "15"}, "geometry": {"type": "Point", "coordinates": [121.410728, 31.234814]}}, {"type": "Feature", "properties": {"city": "Shanghai", "name": "y\u00e1ngp\u01d4 s\u00ec pi\u00e0o", "aqi": "85", "pm25": "85", "pm10": "33", "no2": "40", "so2": "3", "o3": null, "co": "8", "temp": "14"}, "geometry": {"type": "Point", "coordinates": [121.522236, 31.329075]}}, {"type": "Feature", "properties": {"city": "Shanghai", "name": "l\u00faw\u0101n sh\u012b zhu\u0101n f\u00f9xi\u01ceo", "aqi": "80", "pm25": "80", "pm10": "26", "no2": "39", "so2": "4", "o3": "7", "co": "7", "temp": "15"}, "geometry": {"type": "Point", "coordinates": [140.0035584, 35.4496535]}}, {"type": "Feature", "properties": {"city": "Shanghai", "name": "Qingpu Dianshan Lake", "aqi": "114", "pm25": "114", "pm10": "36", "no2": "31", "so2": "3", "o3": null, "co": "6", "temp": "15"}, "geometry": {"type": "Point", "coordinates": [120.978, 31.0935]}}, {"type": "Feature", "properties": {"city": "Shanghai", "name": "Hongkou Liangcheng", "aqi": "85", "pm25": "85", "pm10": "28", "no2": "38", "so2": "3", "o3": "8", "co": "7", "temp": "15"}, "geometry": {"type": "Point", "coordinates": [121.467, 31.3008]}}, {"type": "Feature", "properties": {"city": "Shanghai", "name": "Jing'an Monitoring Station", "aqi": "78", "pm25": "78", "pm10": "29", "no2": "34", "so2": "3", "o3": "14", "co": "7", "temp": "15"}, "geometry": {"type": "Point", "coordinates": [121.425, 31.2261]}}, {"type": "Feature", "properties": {"city": "Shanghai", "name": "x\u00fahu\u00ec sh\u00e0ng sh\u012b d\u00e0", "aqi": "95", "pm25": "95", "pm10": "31", "no2": "38", "so2": "4", "o3": "8", "co": "5", "temp": "15"}, "geometry": {"type": "Point", "coordinates": [140.0035584, 35.4496535]}}, {"type": "Feature", "properties": {"city": "Shanghai", "name": "p\u01d4d\u014dng chu\u0101n sh\u0101", "aqi": "102", "pm25": "102", "pm10": "31", "no2": "38", "so2": "5", "o3": "12", "co": "6", "temp": "14"}, "geometry": {"type": "Point", "coordinates": [121.749495, 31.04808]}}, {"type": "Feature", "properties": {"city": "Shanghai", "name": "p\u01d4d\u014dng zh\u0101ngji\u0101ng", "aqi": "74", "pm25": "74", "pm10": "28", "no2": "33", "so2": "2", "o3": "8", "co": "6", "temp": "14"}, "geometry": {"type": "Point", "coordinates": [121.749495, 31.04808]}}, {"type": "Feature", "properties": {"city": "Shanghai", "name": "Pudong Monitoring Station", "aqi": "80", "pm25": "80", "pm10": "31", "no2": "38", "so2": "2", "o3": "11", "co": "6", "temp": "14"}, "geometry": {"type": "Point", "coordinates": [121.533, 31.2284]}}, {"type": "Feature", "properties": {"city": "Shanghai", "name": "Pudong Zhoupu", "aqi": "76", "pm25": "76", "pm10": "29", "no2": "28", "so2": "2", "o3": "9", "co": "6", "temp": "14"}, "geometry": {"type": "Point", "coordinates": [121.574951, 31.114301]}}, {"type": "Feature", "properties": {"city": "Shanghai", "name": "Pudong Huinan", "aqi": "29", "pm25": "80", "pm10": "29", "no2": "19", "so2": "2", "o3": "13", "co": "7", "temp": "15"}, "geometry": {"type": "Point", "coordinates": [121.749495, 31.04808]}}, {"type": "Feature", "properties": {"city": "Shanghai", "name": "People's Square", "aqi": "76", "pm25": "76", "pm10": "24", "no2": "43", "so2": "2", "o3": "2", "co": "9", "temp": "15"}, "geometry": {"type": "Point", "coordinates": [121.47616, 31.22967]}}, {"type": "Feature", "properties": {"city": "Shanghai", "name": "Huangpu Ruijin", "aqi": "89", "pm25": "89", "pm10": "34", "no2": "36", "so2": "2", "o3": "3", "co": "10", "temp": "15"}, "geometry": {"type": "Point", "coordinates": [121.462917, 31.213834]}}, {"type": "Feature", "properties": {"city": "Shanghai", "name": "Jing'an Qiyi Middle School", "aqi": "82", "pm25": "82", "pm10": "30", "no2": "33", "so2": "3", "o3": "7", "co": "6", "temp": "15"}, "geometry": {"type": "Point", "coordinates": [121.452066, 31.231002]}}, {"type": "Feature", "properties": {"city": "Shanghai", "name": "Jing'an Hetian Middle School", "aqi": "85", "pm25": "85", "pm10": "34", "no2": "31", "so2": "2", "o3": "8", "co": "6", "temp": "15"}, "geometry": {"type": "Point", "coordinates": [121.454927, 31.274911]}}, {"type": "Feature", "properties": {"city": "Shanghai", "name": "Jing'an North High-tech", "aqi": "85", "pm25": "85", "pm10": "36", "no2": "36", "so2": "3", "o3": "5", "co": "6", "temp": "15"}, "geometry": {"type": "Point", "coordinates": [121.436946, 31.295743]}}, {"type": "Feature", "properties": {"city": "Shanghai", "name": "Xujiahui", "aqi": "76", "pm25": "76", "pm10": "28", "no2": "30", "so2": "2", "o3": "9", "co": "6", "temp": "15"}, "geometry": {"type": "Point", "coordinates": [121.437516, 31.194503]}}, {"type": "Feature", "properties": {"city": "Shanghai", "name": "Changning Xianxia", "aqi": "78", "pm25": "78", "pm10": "29", "no2": "34", "so2": "3", "o3": "3", "co": "6", "temp": "15"}, "geometry": {"type": "Point", "coordinates": [121.3892098, 31.2060391]}}, {"type": "Feature", "properties": {"city": "Shanghai", "name": "Changning Chengqiao", "aqi": "72", "pm25": "72", "pm10": "29", "no2": "28", "so2": "3", "o3": "5", "co": "6", "temp": "15"}, "geometry": {"type": "Point", "coordinates": [121.3726724, 31.1891105]}}, {"type": "Feature", "properties": {"city": "Shanghai", "name": "Changning Huayang", "aqi": "76", "pm25": "76", "pm10": "34", "no2": "29", "so2": "4", "o3": "4", "co": "6", "temp": "15"}, "geometry": {"type": "Point", "coordinates": [121.423952, 31.216258]}}, {"type": "Feature", "properties": {"city": "Shanghai", "name": "Putuo Taopu", "aqi": "93", "pm25": "93", "pm10": "40", "no2": "38", "so2": "4", "o3": "1", "co": "8", "temp": "15"}, "geometry": {"type": "Point", "coordinates": [121.363483, 31.278981]}}, {"type": "Feature", "properties": {"city": "Shanghai", "name": "Hongkou Jiaxing", "aqi": "89", "pm25": "89", "pm10": "40", "no2": "35", "so2": "3", "o3": "2", "co": "6", "temp": "15"}, "geometry": {"type": "Point", "coordinates": [121.49131, 31.257187]}}, {"type": "Feature", "properties": {"city": "Shanghai", "name": "Yangpu Monitoring Station", "aqi": "76", "pm25": "76", "pm10": "33", "no2": "38", "so2": "4", "o3": "1", "co": "7", "temp": "14"}, "geometry": {"type": "Point", "coordinates": [121.54201, 31.281478]}}, {"type": "Feature", "properties": {"city": "Shanghai", "name": "Yangpu New Jiangwan City", "aqi": "72", "pm25": "72", "pm10": "28", "no2": "41", "so2": "3", "o3": "3", "co": "7", "temp": "14"}, "geometry": {"type": "Point", "coordinates": [121.522236, 31.329075]}}, {"type": "Feature", "properties": {"city": "Shanghai", "name": "Baoshan Yangxing", "aqi": "85", "pm25": "85", "pm10": "30", "no2": "32", "so2": "5", "o3": "4", "co": "5", "temp": "15"}, "geometry": {"type": "Point", "coordinates": [121.438297, 31.364479]}}, {"type": "Feature", "properties": {"city": "Shanghai", "name": "Baoshan Luodian", "aqi": "53", "pm25": "82", "pm10": "53", "no2": "28", "so2": "2", "o3": "11", "co": "6", "temp": "15"}, "geometry": {"type": "Point", "coordinates": [121.346638, 31.415251]}}, {"type": "Feature", "properties": {"city": "Shanghai", "name": "Baoshan Temple Line", "aqi": "93", "pm25": "93", "pm10": "40", "no2": "24", "so2": "4", "o3": "14", "co": "7", "temp": "15"}, "geometry": {"type": "Point", "coordinates": [121.449684, 31.319788]}}, {"type": "Feature", "properties": {"city": "Shanghai", "name": "Minhang Jiangchuan", "aqi": "78", "pm25": "78", "pm10": "32", "no2": "35", "so2": "3", "o3": "3", "co": "7", "temp": "15"}, "geometry": {"type": "Point", "coordinates": [121.4074826, 31.0066775]}}, {"type": "Feature", "properties": {"city": "Shanghai", "name": "Minhang Pujiang", "aqi": "74", "pm25": "74", "pm10": "38", "no2": "32", "so2": "3", "o3": "3", "co": "6", "temp": "14"}, "geometry": {"type": "Point", "coordinates": [121.515504, 31.075571]}}, {"type": "Feature", "properties": {"city": "Shanghai", "name": "Jiading Monitoring Station", "aqi": "89", "pm25": "89", "pm10": "39", "no2": "35", "so2": "3", "o3": "2", "co": "7", "temp": "15"}, "geometry": {"type": "Point", "coordinates": [121.268689, 31.375042]}}, {"type": "Feature", "properties": {"city": "Shanghai", "name": "Jiading Tianhua College", "aqi": "80", "pm25": "80", "pm10": "44", "no2": "21", "so2": "4", "o3": "12", "co": "14", "temp": "15"}, "geometry": {"type": "Point", "coordinates": [121.201974, 31.408689]}}, {"type": "Feature", "properties": {"city": "Shanghai", "name": "Jiading Fangtai", "aqi": "89", "pm25": "89", "pm10": "32", "no2": "29", "so2": "3", "o3": "1", "co": "7", "temp": "15"}, "geometry": {"type": "Point", "coordinates": [121.217115, 31.31617]}}, {"type": "Feature", "properties": {"city": "Shanghai", "name": "Jiading Nanxiang", "aqi": "76", "pm25": "76", "pm10": "37", "no2": "27", "so2": "3", "o3": "6", "co": "7", "temp": "15"}, "geometry": {"type": "Point", "coordinates": [121.320622, 31.294176]}}, {"type": "Feature", "properties": {"city": "Shanghai", "name": "j\u012bnsh\u0101n zh\u016b j\u012bng", "aqi": "85", "pm25": "85", "pm10": "40", "no2": "24", "so2": "3", "o3": "11", "co": "6", "temp": "15"}, "geometry": {"type": "Point", "coordinates": [121.346377, 30.705811]}}, {"type": "Feature", "properties": {"city": "Shanghai", "name": "Jinshan New Town", "aqi": "78", "pm25": "78", "pm10": "30", "no2": "18", "so2": "5", "o3": "20", "co": "10", "temp": "15"}, "geometry": {"type": "Point", "coordinates": [121.346377, 30.705811]}}, {"type": "Feature", "properties": {"city": "Shanghai", "name": "j\u012bnsh\u0101n l\u00e1ngxi\u00e0", "aqi": "87", "pm25": "87", "pm10": "30", "no2": "16", "so2": "3", "o3": "21", "co": "6", "temp": "15"}, "geometry": {"type": "Point", "coordinates": [121.346377, 30.705811]}}, {"type": "Feature", "properties": {"city": "Shanghai", "name": "Jinshan Fengjing", "aqi": "85", "pm25": "85", "pm10": "36", "no2": "23", "so2": "2", "o3": "11", "co": "6", "temp": "15"}, "geometry": {"type": "Point", "coordinates": [121.010356, 30.888329]}}, {"type": "Feature", "properties": {"city": "Shanghai", "name": "Songjiang Library", "aqi": "89", "pm25": "89", "pm10": "28", "no2": "29", "so2": "2", "o3": "12", "co": "6", "temp": "15"}, "geometry": {"type": "Point", "coordinates": [121.220837, 31.035668]}}, {"type": "Feature", "properties": {"city": "Shanghai", "name": "Songjiang Zhongchen Road", "aqi": "85", "pm25": "85", "pm10": "44", "no2": "26", "so2": "4", "o3": "9", "co": "6", "temp": "15"}, "geometry": {"type": "Point", "coordinates": [121.2697744, 31.0487929]}}, {"type": "Feature", "properties": {"city": "Shanghai", "name": "Qingpu Xiayang", "aqi": "46", "pm25": "89", "pm10": "46", "no2": "36", "so2": "4", "o3": "2", "co": "7", "temp": "15"}, "geometry": {"type": "Point", "coordinates": [121.125969, 31.148344]}}, {"type": "Feature", "properties": {"city": "Shanghai", "name": "Qingpu Zhujiajiao", "aqi": "114", "pm25": "114", "pm10": "40", "no2": "33", "so2": "5", "o3": "4", "co": "6", "temp": "15"}, "geometry": {"type": "Point", "coordinates": [121.046456, 31.103759]}}, {"type": "Feature", "properties": {"city": "Shanghai", "name": "Qingpu Yingpu", "aqi": "87", "pm25": "87", "pm10": "40", "no2": "37", "so2": "2", "o3": "13", "co": "6", "temp": "15"}, "geometry": {"type": "Point", "coordinates": [121.114785, 31.145806]}}, {"type": "Feature", "properties": {"city": "Shanghai", "name": "Fengxian South Bridge", "aqi": "87", "pm25": "87", "pm10": "31", "no2": "22", "so2": "3", "o3": "15", "co": "6", "temp": "15"}, "geometry": {"type": "Point", "coordinates": [121.458755, 30.903467]}}, {"type": "Feature", "properties": {"city": "Shanghai", "name": "Fengxian Bay", "aqi": "46", "pm25": "46", "pm10": "10", "no2": "8", "so2": "4", "o3": "25", "co": "6", "temp": "14"}, "geometry": {"type": "Point", "coordinates": [121.567409, 30.857285]}}, {"type": "Feature", "properties": {"city": "Shanghai", "name": "Fengxian Nanqiao New City", "aqi": "63", "pm25": "63", "pm10": "20", "no2": "17", "so2": "-", "o3": "20", "co": "5", "temp": "15"}, "geometry": {"type": "Point", "coordinates": [121.478835, 30.948883]}}, {"type": "Feature", "properties": {"city": "Shanghai", "name": "Fengxian Fengpu", "aqi": "65", "pm25": "65", "pm10": "23", "no2": "21", "so2": "3", "o3": "18", "co": "6", "temp": "15"}, "geometry": {"type": "Point", "coordinates": [121.4561249, 30.9422683]}}, {"type": "Feature", "properties": {"city": "Shanghai", "name": "Chongming City Bridge", "aqi": "82", "pm25": "82", "pm10": "26", "no2": "6", "so2": "-", "o3": "25", "co": "7", "temp": "15"}, "geometry": {"type": "Point", "coordinates": [121.398098, 31.628161]}}, {"type": "Feature", "properties": {"city": "Shanghai", "name": "ch\u00f3ngm\u00edng l\u01dc hu\u00e1", "aqi": "76", "pm25": "76", "pm10": "29", "no2": "5", "so2": "2", "o3": "15", "co": "4", "temp": "15"}, "geometry": {"type": "Point", "coordinates": [121.398098, 31.628161]}}, {"type": "Feature", "properties": {"city": "Shanghai", "name": "Chongming Forest Park", "aqi": "76", "pm25": "76", "pm10": "22", "no2": "6", "so2": "2", "o3": "26", "co": "3", "temp": "15"}, "geometry": {"type": "Point", "coordinates": [121.482832, 31.681728]}}, {"type": "Feature", "properties": {"city": "Shanghai", "name": "Chongming Shangshi Dongtan", "aqi": "82", "pm25": "82", "pm10": "28", "no2": "4", "so2": "-", "o3": "25", "co": "2", "temp": "14"}, "geometry": {"type": "Point", "coordinates": [121.906898, 31.506837]}}, {"type": "Feature", "properties": {"city": "Shanghai", "name": "Shanghai US Consulate", "aqi": "63", "pm25": "63", "pm10": "28", "no2": "34", "so2": "3", "o3": null, "co": null, "temp": "15"}, "geometry": {"type": "Point", "coordinates": [121.4489017, 31.2047372]}}, {"type": "Feature", "properties": {"city": "Shenzhen", "name": "Yantian", "aqi": "61", "pm25": "61", "pm10": "33", "no2": "12", "so2": "3", "o3": "27", "co": "5", "temp": "20"}, "geometry": {"type": "Point", "coordinates": [114.262078, 22.590807]}}, {"type": "Feature", "properties": {"city": "Shenzhen", "name": "Kwai Chung", "aqi": "82", "pm25": "82", "pm10": "48", "no2": "32", "so2": "4", "o3": "34", "co": "5", "temp": "23"}, "geometry": {"type": "Point", "coordinates": [114.1294899, 22.3568591]}}, {"type": "Feature", "properties": {"city": "Shenzhen", "name": "Nanyou", "aqi": "76", "pm25": "76", "pm10": "48", "no2": "30", "so2": "2", "o3": "26", "co": "4", "temp": "23"}, "geometry": {"type": "Point", "coordinates": [113.923192, 22.516847]}}, {"type": "Feature", "properties": {"city": "Shenzhen", "name": "Nan'aozhen", "aqi": "76", "pm25": "76", "pm10": "31", "no2": "10", "so2": "2", "o3": "31", "co": "5", "temp": "20"}, "geometry": {"type": "Point", "coordinates": [114.496906, 22.528186]}}, {"type": "Feature", "properties": {"city": "Shenzhen", "name": "Meisha", "aqi": "70", "pm25": "70", "pm10": "25", "no2": "8", "so2": "4", "o3": "36", "co": "5", "temp": "20"}, "geometry": {"type": "Point", "coordinates": [114.313483, 22.598902]}}, {"type": "Feature", "properties": {"city": "Shenzhen", "name": "Xi xiang", "aqi": "72", "pm25": "72", "pm10": "40", "no2": "16", "so2": "2", "o3": "33", "co": "5", "temp": "20"}, "geometry": {"type": "Point", "coordinates": [114.247468, 22.720358]}}, {"type": "Feature", "properties": {"city": "Shenzhen", "name": "Liyuan", "aqi": "70", "pm25": "70", "pm10": "29", "no2": "5", "so2": "3", "o3": "36", "co": "6", "temp": "20"}, "geometry": {"type": "Point", "coordinates": [114.0960791, 22.5500005]}}, {"type": "Feature", "properties": {"city": "Shenzhen", "name": "Kwai Chung", "aqi": "65", "pm25": "65", "pm10": "30", "no2": "3", "so2": "3", "o3": "40", "co": "5", "temp": "20"}, "geometry": {"type": "Point", "coordinates": [114.1294899, 22.3568591]}}, {"type": "Feature", "properties": {"city": "Shenzhen", "name": "OCT", "aqi": "91", "pm25": "91", "pm10": "39", "no2": "24", "so2": "4", "o3": "22", "co": "5", "temp": "23"}, "geometry": {"type": "Point", "coordinates": [113.987495, 22.542454]}}, {"type": "Feature", "properties": {"city": "Shenzhen", "name": "Honghu", "aqi": "74", "pm25": "74", "pm10": "40", "no2": "7", "so2": "3", "o3": "42", "co": "5", "temp": "20"}, "geometry": {"type": "Point", "coordinates": [114.116872, 22.562334]}}, {"type": "Feature", "properties": {"city": "Shenzhen", "name": "Mission Hills", "aqi": "80", "pm25": "80", "pm10": "43", "no2": "11", "so2": "2", "o3": "40", "co": "5", "temp": "20"}, "geometry": {"type": "Point", "coordinates": [114.04539, 22.696848]}}, {"type": "Feature", "properties": {"city": "Guangzhou", "name": "L\u00ecw\u0101n xic\u016bn, Guangzhou", "aqi": "89", "pm25": "89", "pm10": "53", "no2": "19", "so2": "3", "o3": null, "co": "11", "temp": "17"}, "geometry": {"type": "Point", "coordinates": [113.568, 23.2783]}}, {"type": "Feature", "properties": {"city": "Guangzhou", "name": "G\u014dngyu\u00e1n qi\u00e1n, Guangzhou", "aqi": "124", "pm25": "124", "pm10": "68", "no2": "28", "so2": "3", "o3": null, "co": "8", "temp": "23"}, "geometry": {"type": "Point", "coordinates": [113.568, 23.2783]}}, {"type": "Feature", "properties": {"city": "Guangzhou", "name": "H\u01cei zh\u016bb\u01ceo g\u01ceng, Guangzhou", "aqi": "91", "pm25": "91", "pm10": "52", "no2": "17", "so2": "3", "o3": null, "co": "11", "temp": "17"}, "geometry": {"type": "Point", "coordinates": [113.568, 23.2783]}}, {"type": "Feature", "properties": {"city": "Guangzhou", "name": "H\u01ceizh\u016b ch\u00ecsh\u0101, Guangzhou", "aqi": "82", "pm25": "82", "pm10": "50", "no2": "22", "so2": "3", "o3": null, "co": "9", "temp": "17"}, "geometry": {"type": "Point", "coordinates": [113.568, 23.2783]}}, {"type": "Feature", "properties": {"city": "Guangzhou", "name": "Hu\u00e1ngb\u00f9 d\u00e0sh\u0101d\u00ec, Guangzhou", "aqi": "97", "pm25": "97", "pm10": "56", "no2": "22", "so2": "4", "o3": null, "co": "10", "temp": "17"}, "geometry": {"type": "Point", "coordinates": [113.568, 23.2783]}}, {"type": "Feature", "properties": {"city": "Guangzhou", "name": "P\u0101ny\u00fa city bridge, Guangzhou", "aqi": "97", "pm25": "97", "pm10": "65", "no2": "25", "so2": "5", "o3": null, "co": "11", "temp": "17"}, "geometry": {"type": "Point", "coordinates": [113.352, 22.9477]}}, {"type": "Feature", "properties": {"city": "Guangzhou", "name": "Luogang Zhenlong, Guangzhou", "aqi": "72", "pm25": "72", "pm10": "48", "no2": "15", "so2": "3", "o3": null, "co": "9", "temp": "17"}, "geometry": {"type": "Point", "coordinates": [113.568, 23.2783]}}, {"type": "Feature", "properties": {"city": "Guangzhou", "name": "LuHu, Guangzhou", "aqi": "99", "pm25": "99", "pm10": "57", "no2": "45", "so2": "4", "o3": "57", "co": "7", "temp": "23"}, "geometry": {"type": "Point", "coordinates": [113.281, 23.1569]}}, {"type": "Feature", "properties": {"city": "Guangzhou", "name": "Tianhu, Guangzhou", "aqi": "109", "pm25": "109", "pm10": "55", "no2": "19", "so2": "4", "o3": null, "co": "7", "temp": "23"}, "geometry": {"type": "Point", "coordinates": [113.6246, 23.6502]}}, {"type": "Feature", "properties": {"city": "Guangzhou", "name": "Zhudong, Guangzhou", "aqi": "67", "pm25": "30", "pm10": "67", "no2": "38", "so2": "4", "o3": null, "co": "9", "temp": "23"}, "geometry": {"type": "Point", "coordinates": [113.073, 23.4208]}}, {"type": "Feature", "properties": {"city": "Zhuhai", "name": "D\u00f2um\u00e9n, Zhuhai", "aqi": "63", "pm25": "63", "pm10": "40", "no2": "11", "so2": "1", "o3": "37", "co": "6", "temp": "21"}, "geometry": {"type": "Point", "coordinates": [113.628, 22.4251]}}, {"type": "Feature", "properties": {"city": "Zhuhai", "name": "J\u00edd\u00e0, Zhuhai", "aqi": "61", "pm25": "61", "pm10": "28", "no2": "8", "so2": "2", "o3": "45", "co": "3", "temp": "21"}, "geometry": {"type": "Point", "coordinates": [113.628, 22.4251]}}, {"type": "Feature", "properties": {"city": "Zhuhai", "name": "Qi\u00e1nsh\u0101n, Zhuhai", "aqi": "59", "pm25": "59", "pm10": "30", "no2": "17", "so2": "2", "o3": "42", "co": "5", "temp": "21"}, "geometry": {"type": "Point", "coordinates": [113.628, 22.4251]}}, {"type": "Feature", "properties": {"city": "Zhuhai", "name": "T\u00e1ng ji\u0101, Zhuhai", "aqi": "63", "pm25": "63", "pm10": "22", "no2": "8", "so2": "3", "o3": "46", "co": "4", "temp": "21"}, "geometry": {"type": "Point", "coordinates": [113.628, 22.4251]}}, {"type": "Feature", "properties": {"city": "Fushan", "name": "Hu\u00ecj\u01d0ngch\u00e9ng, Foshan", "aqi": "157", "pm25": "157", "pm10": "68", "no2": "32", "so2": "6", "o3": "85", "co": "7", "temp": "23"}, "geometry": {"type": "Point", "coordinates": [112.885, 23.1572]}}, {"type": "Feature", "properties": {"city": "Fushan", "name": "W\u0101n li\u00e1ng, Foshan", "aqi": "152", "pm25": "152", "pm10": "80", "no2": "31", "so2": "7", "o3": "80", "co": "7", "temp": "23"}, "geometry": {"type": "Point", "coordinates": [112.885, 23.1572]}}, {"type": "Feature", "properties": {"city": "Fushan", "name": "Huicai technical school, Foshan", "aqi": "163", "pm25": "163", "pm10": "71", "no2": "33", "so2": "5", "o3": "76", "co": "9", "temp": "23"}, "geometry": {"type": "Point", "coordinates": [113.105, 23.0395]}}, {"type": "Feature", "properties": {"city": "Fushan", "name": "Sanshuiyun donghai, Foshan", "aqi": "153", "pm25": "153", "pm10": "73", "no2": "32", "so2": "7", "o3": "47", "co": "9", "temp": "23"}, "geometry": {"type": "Point", "coordinates": [112.863, 23.1886]}}, {"type": "Feature", "properties": {"city": "Fushan", "name": "Nanhai Bureau of Meteorology, Foshan", "aqi": "157", "pm25": "157", "pm10": "71", "no2": "29", "so2": "4", "o3": "77", "co": "9", "temp": "23"}, "geometry": {"type": "Point", "coordinates": [113.144, 23.0467]}}, {"type": "Feature", "properties": {"city": "Fushan", "name": "G\u0101om\u00edng k\u01d2ngt\u00e1ng, Foshan", "aqi": "154", "pm25": "154", "pm10": "82", "no2": "31", "so2": "5", "o3": "50", "co": "9", "temp": "23"}, "geometry": {"type": "Point", "coordinates": [112.885, 23.1572]}}, {"type": "Feature", "properties": {"city": "Fushan", "name": "Sanshui Monitoring Station, Foshan", "aqi": "160", "pm25": "160", "pm10": "79", "no2": "35", "so2": "6", "o3": "58", "co": "8", "temp": "23"}, "geometry": {"type": "Point", "coordinates": [112.885, 23.1572]}}, {"type": "Feature", "properties": {"city": "Shunde", "name": "Sh\u00f9nd\u00e9 s\u016bg\u01ceng, Shunde", "aqi": "112", "pm25": "112", "pm10": "56", "no2": "22", "so2": "5", "o3": null, "co": "13", "temp": "17"}, "geometry": {"type": "Point", "coordinates": [113.257, 22.7629]}}, {"type": "Feature", "properties": {"city": "Shunde", "name": "Ronggui street committee, Shunde", "aqi": "102", "pm25": "102", "pm10": "64", "no2": "22", "so2": "3", "o3": null, "co": "12", "temp": "17"}, "geometry": {"type": "Point", "coordinates": [113.257, 22.7629]}}, {"type": "Feature", "properties": {"city": "Jiangmen", "name": "Donghu, Jiangmen", "aqi": "95", "pm25": "95", "pm10": "52", "no2": "12", "so2": "3", "o3": "57", "co": "6", "temp": "23"}, "geometry": {"type": "Point", "coordinates": [113.0819, 22.5931]}}, {"type": "Feature", "properties": {"city": "Jiangmen", "name": "Xiq\u016b, Jiangmen", "aqi": "112", "pm25": "112", "pm10": "48", "no2": "12", "so2": "3", "o3": "62", "co": "5", "temp": "23"}, "geometry": {"type": "Point", "coordinates": [112.929, 22.7279]}}, {"type": "Feature", "properties": {"city": "Jiangmen", "name": "B\u011biji\u0113, Jiangmen", "aqi": "80", "pm25": "80", "pm10": "55", "no2": "12", "so2": "3", "o3": "60", "co": "6", "temp": "23"}, "geometry": {"type": "Point", "coordinates": [112.929, 22.7279]}}, {"type": "Feature", "properties": {"city": "Jiangmen", "name": "Gu\u012bf\u0113ngxi, Jiangmen", "aqi": "91", "pm25": "91", "pm10": "50", "no2": "12", "so2": "3", "o3": "60", "co": "6", "temp": "23"}, "geometry": {"type": "Point", "coordinates": [112.929, 22.7279]}}, {"type": "Feature", "properties": {"city": "Zhaoqing", "name": "Kengkouzi station, Zhaoqing", "aqi": "158", "pm25": "158", "pm10": "72", "no2": "32", "so2": "10", "o3": "17", "co": "9", "temp": "23"}, "geometry": {"type": "Point", "coordinates": [112.565, 23.1617]}}, {"type": "Feature", "properties": {"city": "Zhaoqing", "name": "Qixingyanzi station, Zhaoqing", "aqi": "144", "pm25": "144", "pm10": "66", "no2": "29", "so2": "7", "o3": null, "co": "11", "temp": "23"}, "geometry": {"type": "Point", "coordinates": [112.4722, 23.0786]}}, {"type": "Feature", "properties": {"city": "Zhaoqing", "name": "Chengzhongzi station, Zhaoqing", "aqi": "137", "pm25": "137", "pm10": "67", "no2": "22", "so2": "6", "o3": "41", "co": "11", "temp": "23"}, "geometry": {"type": "Point", "coordinates": [112.471, 23.0528]}}, {"type": "Feature", "properties": {"city": "Huizhou", "name": "Xiabu, Huizhou", "aqi": "114", "pm25": "114", "pm10": "54", "no2": "12", "so2": "4", "o3": null, "co": "7", "temp": "20"}, "geometry": {"type": "Point", "coordinates": [114.4053, 23.08]}}, {"type": "Feature", "properties": {"city": "Huizhou", "name": "Henan'an, Huizhou", "aqi": "117", "pm25": "117", "pm10": "57", "no2": "13", "so2": "3", "o3": null, "co": "6", "temp": "20"}, "geometry": {"type": "Point", "coordinates": [114.4183, 23.0528]}}, {"type": "Feature", "properties": {"city": "Huizhou", "name": "Jiangbei, Huizhou", "aqi": "127", "pm25": "127", "pm10": "50", "no2": "8", "so2": "3", "o3": null, "co": "7", "temp": "20"}, "geometry": {"type": "Point", "coordinates": [114.4103, 23.1142]}}, {"type": "Feature", "properties": {"city": "Huizhou", "name": "Huiyang chuanhu, Huizhou", "aqi": "93", "pm25": "93", "pm10": "57", "no2": "16", "so2": "4", "o3": null, "co": "6", "temp": "20"}, "geometry": {"type": "Point", "coordinates": [114.3244, 22.8172]}}, {"type": "Feature", "properties": {"city": "Huizhou", "name": "Daya bay management committee, Huizhou", "aqi": "76", "pm25": "76", "pm10": "48", "no2": "12", "so2": "4", "o3": "40", "co": "6", "temp": "20"}, "geometry": {"type": "Point", "coordinates": [114.5317, 22.7422]}}, {"type": "Feature", "properties": {"city": "Dongguan", "name": "Dongcheng Shijing, Dongguan", "aqi": "152", "pm25": "152", "pm10": "66", "no2": "20", "so2": "4", "o3": "81", "co": "7", "temp": "23"}, "geometry": {"type": "Point", "coordinates": [113.7944444, 23.01277778]}}, {"type": "Feature", "properties": {"city": "Dongguan", "name": "Nancheng Xiping, Dongguan", "aqi": "168", "pm25": "168", "pm10": "63", "no2": "22", "so2": "3", "o3": "61", "co": "6", "temp": "23"}, "geometry": {"type": "Point", "coordinates": [113.7383333, 22.96583333]}}, {"type": "Feature", "properties": {"city": "Dongguan", "name": "Nancheng Yuanling, Dongguan", "aqi": "139", "pm25": "139", "pm10": "68", "no2": "18", "so2": "5", "o3": "89", "co": "6", "temp": "23"}, "geometry": {"type": "Point", "coordinates": [113.7461111, 23.02777778]}}, {"type": "Feature", "properties": {"city": "Zhongshan", "name": "Zimaling, Zhongshan", "aqi": "68", "pm25": "68", "pm10": "47", "no2": "8", "so2": "3", "o3": "51", "co": "4", "temp": "23"}, "geometry": {"type": "Point", "coordinates": [113.402, 22.5078]}}, {"type": "Feature", "properties": {"city": "Zhongshan", "name": "Yangtze River tourist area, Zhongshan", "aqi": "72", "pm25": "72", "pm10": "37", "no2": "9", "so2": "2", "o3": "48", "co": "6", "temp": "23"}, "geometry": {"type": "Point", "coordinates": [113.434, 22.4886]}}, {"type": "Feature", "properties": {"city": "Zhongshan", "name": "Huabai Park, Zhongshan", "aqi": "93", "pm25": "93", "pm10": "44", "no2": "22", "so2": "3", "o3": "52", "co": "6", "temp": "23"}, "geometry": {"type": "Point", "coordinates": [113.369, 22.5211]}}, {"type": "Feature", "properties": {"city": "Zhongshan", "name": "Zhangxi, Zhongshan", "aqi": "80", "pm25": "80", "pm10": "48", "no2": "13", "so2": "3", "o3": "51", "co": "5", "temp": "23"}, "geometry": {"type": "Point", "coordinates": [113.365, 22.5481]}}, {"type": "Feature", "properties": {"city": "Shaoguan", "name": "No.8 middle school, Shaoguan", "aqi": "152", "pm25": "152", "pm10": "57", "no2": "25", "so2": "8", "o3": null, "co": "14", "temp": "17"}, "geometry": {"type": "Point", "coordinates": [113.5783, 24.7708]}}, {"type": "Feature", "properties": {"city": "Shaoguan", "name": "B\u00ech\u00fa sh\u0101nzhu\u0101ng, Shaoguan", "aqi": "119", "pm25": "119", "pm10": "52", "no2": "23", "so2": "8", "o3": "14", "co": "9", "temp": "17"}, "geometry": {"type": "Point", "coordinates": [114.475, 36.754]}}, {"type": "Feature", "properties": {"city": "Shaoguan", "name": "Forest area, Shaoguan", "aqi": "97", "pm25": "97", "pm10": "58", "no2": "17", "so2": "8", "o3": "20", "co": "12", "temp": "17"}, "geometry": {"type": "Point", "coordinates": [113.598061, 24.795928]}}, {"type": "Feature", "properties": {"city": "Shaoguan", "name": "Shaoguan University, Shaoguan", "aqi": "162", "pm25": "162", "pm10": "64", "no2": "19", "so2": "10", "o3": null, "co": "12", "temp": "17"}, "geometry": {"type": "Point", "coordinates": [113.6414, 24.7939]}}, {"type": "Feature", "properties": {"city": "Shaoguan", "name": "Qujiang Monitoring Station, Shaoguan", "aqi": "154", "pm25": "154", "pm10": "58", "no2": "22", "so2": "7", "o3": "12", "co": "12", "temp": "17"}, "geometry": {"type": "Point", "coordinates": [113.5970833, 24.68636111]}}, {"type": "Feature", "properties": {"city": "Shantou", "name": "J\u012bnp\u00edngzi, Shantou", "aqi": "74", "pm25": "74", "pm10": "37", "no2": "16", "so2": "4", "o3": "32", "co": "9", "temp": "21"}, "geometry": {"type": "Point", "coordinates": [117.0219, 23.42]}}, {"type": "Feature", "properties": {"city": "Shantou", "name": "L\u00f3ngh\u00fazi, Shantou", "aqi": "68", "pm25": "68", "pm10": "33", "no2": "16", "so2": "4", "o3": "33", "co": "6", "temp": "21"}, "geometry": {"type": "Point", "coordinates": [117.0219, 23.42]}}, {"type": "Feature", "properties": {"city": "Shantou", "name": "H\u00e1oji\u0101ngzi, Shantou", "aqi": "63", "pm25": "63", "pm10": "29", "no2": "12", "so2": "4", "o3": "30", "co": "8", "temp": "21"}, "geometry": {"type": "Point", "coordinates": [117.0219, 23.42]}}, {"type": "Feature", "properties": {"city": "Shantou", "name": "Ch\u00e9ngh\u01ceizi, Shantou", "aqi": "76", "pm25": "76", "pm10": "45", "no2": "15", "so2": "6", "o3": "31", "co": "7", "temp": "21"}, "geometry": {"type": "Point", "coordinates": [117.0219, 23.42]}}, {"type": "Feature", "properties": {"city": "Shantou", "name": "Ch\u00e1oy\u00e1ngzi, Shantou", "aqi": "70", "pm25": "70", "pm10": "50", "no2": "15", "so2": "4", "o3": "33", "co": "6", "temp": "21"}, "geometry": {"type": "Point", "coordinates": [117.0219, 23.42]}}, {"type": "Feature", "properties": {"city": "Zhanjiang", "name": "City Environmental Monitoring Station, Zhanjiang", "aqi": "102", "pm25": "102", "pm10": "39", "no2": "5", "so2": "2", "o3": "53", "co": "6", "temp": "24"}, "geometry": {"type": "Point", "coordinates": [110.3928, 21.2228]}}, {"type": "Feature", "properties": {"city": "Zhanjiang", "name": "EPB Dormitory, Zhanjiang", "aqi": "91", "pm25": "91", "pm10": "41", "no2": "8", "so2": "2", "o3": "49", "co": "6", "temp": "24"}, "geometry": {"type": "Point", "coordinates": [110.4019, 21.1997]}}, {"type": "Feature", "properties": {"city": "Zhanjiang", "name": "Xiashan Swimming Park, Zhanjiang", "aqi": "97", "pm25": "97", "pm10": "50", "no2": "6", "so2": "3", "o3": "51", "co": "7", "temp": "24"}, "geometry": {"type": "Point", "coordinates": [110.4111, 21.2028]}}, {"type": "Feature", "properties": {"city": "Zhanjiang", "name": "Zhanjiang Theatre, Zhanjiang", "aqi": "95", "pm25": "95", "pm10": "43", "no2": "6", "so2": "2", "o3": "48", "co": "6", "temp": "24"}, "geometry": {"type": "Point", "coordinates": [110.3539, 21.2706]}}, {"type": "Feature", "properties": {"city": "Maoming", "name": "Maogang sub-office EPB, Maoming", "aqi": "72", "pm25": "72", "pm10": "35", "no2": "8", "so2": "3", "o3": null, "co": "6", "temp": "24"}, "geometry": {"type": "Point", "coordinates": [111.0286, 21.4689]}}, {"type": "Feature", "properties": {"city": "Maoming", "name": "Petrochemical No. 7 elementaty school, Maoming", "aqi": "74", "pm25": "74", "pm10": "49", "no2": "4", "so2": "3", "o3": "40", "co": "5", "temp": "24"}, "geometry": {"type": "Point", "coordinates": [110.9294, 21.6533]}}, {"type": "Feature", "properties": {"city": "Maoming", "name": "Jiankang road, Maoming", "aqi": "85", "pm25": "85", "pm10": "45", "no2": "13", "so2": "3", "o3": null, "co": "7", "temp": "24"}, "geometry": {"type": "Point", "coordinates": [110.9067, 21.6669]}}, {"type": "Feature", "properties": {"city": "Meizhou", "name": "Jiaying University, Meizhou", "aqi": "99", "pm25": "99", "pm10": "48", "no2": "7", "so2": "5", "o3": "41", "co": "7", "temp": "24"}, "geometry": {"type": "Point", "coordinates": [116.1278, 24.3289]}}, {"type": "Feature", "properties": {"city": "Meizhou", "name": "Mexian new town, Meizhou", "aqi": "99", "pm25": "99", "pm10": "37", "no2": "8", "so2": "3", "o3": "41", "co": "6", "temp": "24"}, "geometry": {"type": "Point", "coordinates": [116.0797, 24.2719]}}, {"type": "Feature", "properties": {"city": "Meizhou", "name": "Environmental Monitoring Center, Meizhou", "aqi": "95", "pm25": "95", "pm10": "54", "no2": "12", "so2": "4", "o3": "35", "co": "8", "temp": "24"}, "geometry": {"type": "Point", "coordinates": [116.1248, 24.2654]}}, {"type": "Feature", "properties": {"city": "Shanwei", "name": "City EPA, Shanwei", "aqi": "107", "pm25": "107", "pm10": "52", "no2": "6", "so2": "4", "o3": "48", "co": "6", "temp": "21"}, "geometry": {"type": "Point", "coordinates": [115.3653, 22.775]}}, {"type": "Feature", "properties": {"city": "Shanwei", "name": "City government, Shanwei", "aqi": "99", "pm25": "99", "pm10": "44", "no2": "7", "so2": "4", "o3": "37", "co": "6", "temp": "19"}, "geometry": {"type": "Point", "coordinates": [115.3578, 22.7953]}}, {"type": "Feature", "properties": {"city": "Shanwei", "name": "Xincheng Middle School, Shanwei", "aqi": "114", "pm25": "114", "pm10": "50", "no2": "7", "so2": "5", "o3": "48", "co": "8", "temp": "21"}, "geometry": {"type": "Point", "coordinates": [115.3622, 22.7925]}}, {"type": "Feature", "properties": {"city": "Yangjiang", "name": "Yuanyang Lake, Yangjiang", "aqi": "97", "pm25": "97", "pm10": "39", "no2": "3", "so2": "3", "o3": "56", "co": "6", "temp": "24"}, "geometry": {"type": "Point", "coordinates": [111.9786, 21.8586]}}, {"type": "Feature", "properties": {"city": "Yangjiang", "name": "Nan'en road, Yangjiang", "aqi": "99", "pm25": "99", "pm10": "37", "no2": "3", "so2": "3", "o3": "53", "co": "6", "temp": "24"}, "geometry": {"type": "Point", "coordinates": [111.9508, 21.8536]}}, {"type": "Feature", "properties": {"city": "Qingyuan", "name": "Town governement, Qingyuan", "aqi": "158", "pm25": "158", "pm10": "69", "no2": "23", "so2": "7", "o3": null, "co": "11", "temp": "23"}, "geometry": {"type": "Point", "coordinates": [113.0208, 23.7106]}}, {"type": "Feature", "properties": {"city": "Chaozhou", "name": "Xiyuan Road, Chaozhou", "aqi": "142", "pm25": "142", "pm10": "57", "no2": "13", "so2": "8", "o3": "31", "co": "8", "temp": "21"}, "geometry": {"type": "Point", "coordinates": [116.6339, 23.6714]}}, {"type": "Feature", "properties": {"city": "Chaozhou", "name": "Archives Bureau, Chaozhou", "aqi": "119", "pm25": "119", "pm10": "51", "no2": "14", "so2": "6", "o3": "29", "co": "11", "temp": "21"}, "geometry": {"type": "Point", "coordinates": [116.6447, 23.6706]}}, {"type": "Feature", "properties": {"city": "Jieyang", "name": "Experimental Primary School, Jieyang", "aqi": "139", "pm25": "139", "pm10": "68", "no2": "8", "so2": "7", "o3": "30", "co": "7", "temp": "18"}, "geometry": {"type": "Point", "coordinates": [116.3594, 23.5739]}}, {"type": "Feature", "properties": {"city": "Yunfu", "name": "City Environmental Monitoring Station, Yunfu", "aqi": "87", "pm25": "87", "pm10": "36", "no2": "14", "so2": "4", "o3": "43", "co": "8", "temp": "23"}, "geometry": {"type": "Point", "coordinates": [112.0369, 22.9394]}}, {"type": "Feature", "properties": {"city": "Yunfu", "name": "The new city government headquarters, Yunfu", "aqi": "102", "pm25": "102", "pm10": "53", "no2": "20", "so2": "2", "o3": null, "co": "10", "temp": "15"}, "geometry": {"type": "Point", "coordinates": [112.0392, 22.9169]}}, {"type": "Feature", "properties": {"city": "Yunfu", "name": "Muyang police sub-station, Yunfu", "aqi": "155", "pm25": "155", "pm10": "58", "no2": "25", "so2": "18", "o3": null, "co": "10", "temp": "15"}, "geometry": {"type": "Point", "coordinates": [112.0539, 22.9539]}}, {"type": "Feature", "properties": {"city": "Shantou", "name": "Chaonanzi Station, Shantou", "aqi": "142", "pm25": "142", "pm10": "65", "no2": "16", "so2": "6", "o3": "31", "co": "7", "temp": "21"}, "geometry": {"type": "Point", "coordinates": [116.4019, 23.2536]}}, {"type": "Feature", "properties": {"city": "Zhanjiang", "name": "Mazhang EPA, Zhanjiang", "aqi": "93", "pm25": "93", "pm10": "51", "no2": "5", "so2": "2", "o3": "55", "co": "6", "temp": "24"}, "geometry": {"type": "Point", "coordinates": [110.3316, 21.2679]}}, {"type": "Feature", "properties": {"city": "Zhanjiang", "name": "Potou District EPB, Zhanjiang", "aqi": "107", "pm25": "107", "pm10": "40", "no2": "4", "so2": "3", "o3": "58", "co": "6", "temp": "24"}, "geometry": {"type": "Point", "coordinates": [110.4558, 21.2567]}}, {"type": "Feature", "properties": {"city": "Maoming", "name": "Gaoling, Maoming", "aqi": "55", "pm25": "55", "pm10": "35", "no2": "9", "so2": "1", "o3": "43", "co": "4", "temp": "24"}, "geometry": {"type": "Point", "coordinates": [110.8592, 21.6828]}}, {"type": "Feature", "properties": {"city": "Fushan", "name": "Jinjuzui, Foshan", "aqi": "114", "pm25": "114", "pm10": "50", "no2": "20", "so2": "3", "o3": "55", "co": "6", "temp": "23"}, "geometry": {"type": "Point", "coordinates": [113.261667, 22.819722]}}, {"type": "Feature", "properties": {"city": "Fushan", "name": "Sh\u00f9nd\u00e9 s\u016bg\u01ceng, Foshan", "aqi": "114", "pm25": "114", "pm10": "58", "no2": "19", "so2": "5", "o3": "48", "co": "6", "temp": "23"}, "geometry": {"type": "Point", "coordinates": [112.885, 23.1572]}}, {"type": "Feature", "properties": {"city": "Fushan", "name": "Ronggui street committee, Foshan", "aqi": "147", "pm25": "147", "pm10": "74", "no2": "16", "so2": "3", "o3": "63", "co": "7", "temp": "23"}, "geometry": {"type": "Point", "coordinates": [113.257, 22.7629]}}, {"type": "Feature", "properties": {"city": "Heyuan", "name": "Dongpu, Heyuan", "aqi": "87", "pm25": "87", "pm10": "37", "no2": "10", "so2": "4", "o3": "-", "co": "11", "temp": "23"}, "geometry": {"type": "Point", "coordinates": [114.6944, 23.7586]}}, {"type": "Feature", "properties": {"city": "Heyuan", "name": "yu\u00e1n x\u012b, Heyuan", "aqi": "87", "pm25": "87", "pm10": "49", "no2": "8", "so2": "3", "o3": "36", "co": "9", "temp": "23"}, "geometry": {"type": "Point", "coordinates": [114.6778, 23.7569]}}, {"type": "Feature", "properties": {"city": "Heyuan", "name": "Old Town, Heyuan", "aqi": "93", "pm25": "93", "pm10": "42", "no2": "7", "so2": "4", "o3": "40", "co": "9", "temp": "23"}, "geometry": {"type": "Point", "coordinates": [114.6892, 23.7233]}}, {"type": "Feature", "properties": {"city": "Qingyuan", "name": "EPA building, Qingyuan", "aqi": "168", "pm25": "168", "pm10": "74", "no2": "22", "so2": "4", "o3": "31", "co": "8", "temp": "23"}, "geometry": {"type": "Point", "coordinates": [113.0425, 23.6936]}}, {"type": "Feature", "properties": {"city": "Dongguan", "name": "gu\u01cen ch\u00e9ng l\u00ed chu\u0101n, Dongguan", "aqi": "162", "pm25": "162", "pm10": "64", "no2": "22", "so2": "6", "o3": "86", "co": "6", "temp": "23"}, "geometry": {"type": "Point", "coordinates": [113.7819444, 23.05361111]}}, {"type": "Feature", "properties": {"city": "Dongguan", "name": "d\u014dngch\u00e9ng zh\u01d4 sh\u0101n, Dongguan", "aqi": "154", "pm25": "154", "pm10": "64", "no2": "17", "so2": "4", "o3": "85", "co": "6", "temp": "23"}, "geometry": {"type": "Point", "coordinates": [113.7944444, 23.01277778]}}, {"type": "Feature", "properties": {"city": "Jieyang", "name": "y\u00fa h\u00fa, Jieyang", "aqi": "153", "pm25": "153", "pm10": "67", "no2": "16", "so2": "8", "o3": "47", "co": "9", "temp": "21"}, "geometry": {"type": "Point", "coordinates": [116.3594, 23.5739]}}, {"type": "Feature", "properties": {"city": "Jieyang", "name": "x\u012bnx\u012bng, Jieyang", "aqi": "159", "pm25": "159", "pm10": "68", "no2": "12", "so2": "5", "o3": "31", "co": "8", "temp": "21"}, "geometry": {"type": "Point", "coordinates": [116.3594, 23.5739]}}, {"type": "Feature", "properties": {"city": "Jieyang", "name": "d\u014dngx\u00ecng, Jieyang", "aqi": "158", "pm25": "158", "pm10": "71", "no2": "15", "so2": "6", "o3": null, "co": "11", "temp": "21"}, "geometry": {"type": "Point", "coordinates": [116.3594, 23.5739]}}, {"type": "Feature", "properties": {"city": "Jieyang", "name": "x\u012b m\u01ce, Jieyang", "aqi": "158", "pm25": "158", "pm10": "77", "no2": "16", "so2": "6", "o3": "65", "co": "9", "temp": "21"}, "geometry": {"type": "Point", "coordinates": [116.3594, 23.5739]}}, {"type": "Feature", "properties": {"city": "Guangzhou", "name": "t\u01d0y\u00f9 x\u012b, Guangzhou", "aqi": "122", "pm25": "122", "pm10": "64", "no2": "27", "so2": "4", "o3": "48", "co": "9", "temp": "23"}, "geometry": {"type": "Point", "coordinates": [113.568, 23.2783]}}, {"type": "Feature", "properties": {"city": "Guangzhou", "name": "p\u0101ny\u00fa zh\u014dngxu\u00e9, Guangzhou", "aqi": "107", "pm25": "107", "pm10": "58", "no2": "15", "so2": "4", "o3": "58", "co": "7", "temp": "23"}, "geometry": {"type": "Point", "coordinates": [113.568, 23.2783]}}, {"type": "Feature", "properties": {"city": "Guangzhou", "name": "hu\u0101d\u016b sh\u012bf\u00e0n, Guangzhou", "aqi": "67", "pm25": "30", "pm10": "67", "no2": "38", "so2": "4", "o3": "20", "co": "9", "temp": "23"}, "geometry": {"type": "Point", "coordinates": [113.215, 23.3917]}}, {"type": "Feature", "properties": {"city": "Guangzhou", "name": "ji\u01d4l\u00f3ng zh\u00e8n zh\u00e8n l\u00f3ng, Guangzhou", "aqi": "139", "pm25": "139", "pm10": "70", "no2": "17", "so2": "4", "o3": "64", "co": "6", "temp": "23"}, "geometry": {"type": "Point", "coordinates": [117.12, 40.1]}}, {"type": "Feature", "properties": {"city": "Guangzhou", "name": "gu\u01cengy\u01ce zh\u014dngxu\u00e9, Guangzhou", "aqi": "139", "pm25": "139", "pm10": "68", "no2": "33", "so2": "4", "o3": "41", "co": "8", "temp": "23"}, "geometry": {"type": "Point", "coordinates": [113.568, 23.2783]}}, {"type": "Feature", "properties": {"city": "Guangzhou", "name": "City Monitoring Station, Guangzhou", "aqi": "124", "pm25": "124", "pm10": "68", "no2": "28", "so2": "3", "o3": "53", "co": "8", "temp": "23"}, "geometry": {"type": "Point", "coordinates": [113.26, 23.1331]}}, {"type": "Feature", "properties": {"city": "Guangzhou", "name": "sh\u00ec w\u01d4 zh\u014dng, Guangzhou", "aqi": "152", "pm25": "152", "pm10": "69", "no2": "28", "so2": "3", "o3": "50", "co": "9", "temp": "23"}, "geometry": {"type": "Point", "coordinates": [140.0035584, 35.4496535]}}, {"type": "Feature", "properties": {"city": "Guangzhou", "name": "gu\u01cengd\u014dng sh\u0101ngxu\u00e9yu\u00e0n, Guangzhou", "aqi": "114", "pm25": "114", "pm10": "62", "no2": "25", "so2": "4", "o3": "64", "co": "6", "temp": "23"}, "geometry": {"type": "Point", "coordinates": [113.568, 23.2783]}}, {"type": "Feature", "properties": {"city": "Guangzhou", "name": "sh\u00ec b\u0101sh\u00ed li\u00f9 zh\u014dng, Guangzhou", "aqi": "112", "pm25": "112", "pm10": "61", "no2": "32", "so2": "3", "o3": "63", "co": "6", "temp": "23"}, "geometry": {"type": "Point", "coordinates": [140.0035584, 35.4496535]}}, {"type": "Feature", "properties": {"city": "Huizhou", "name": "hu\u00ecy\u00e1ngq\u016b ch\u00e9ng xi\u016bl\u00f9 chu\u00e1n h\u00fa, Huizhou", "aqi": "93", "pm25": "93", "pm10": "57", "no2": "16", "so2": "4", "o3": "35", "co": "6", "temp": "20"}, "geometry": {"type": "Point", "coordinates": [114.3244, 22.8172]}}, {"type": "Feature", "properties": {"city": "Huizhou", "name": "h\u00e9n\u00e1n \u00e0n j\u012bnsh\u0101n h\u00fa, Huizhou", "aqi": "117", "pm25": "117", "pm10": "57", "no2": "13", "so2": "3", "o3": "50", "co": "6", "temp": "20"}, "geometry": {"type": "Point", "coordinates": [114.3244, 22.8172]}}, {"type": "Feature", "properties": {"city": "Huizhou", "name": "xi\u00e0 b\u00f9 h\u00e9ng ji\u0101ng s\u0101n l\u00f9, Huizhou", "aqi": "114", "pm25": "114", "pm10": "54", "no2": "12", "so2": "4", "o3": "54", "co": "7", "temp": "20"}, "geometry": {"type": "Point", "coordinates": [-116.92944, 32.57944]}}, {"type": "Feature", "properties": {"city": "Huizhou", "name": "ji\u0101ngb\u011bi y\u00fan sh\u0101nx\u012b l\u00f9, Huizhou", "aqi": "127", "pm25": "127", "pm10": "50", "no2": "8", "so2": "3", "o3": "56", "co": "8", "temp": "20"}, "geometry": {"type": "Point", "coordinates": [114.4103, 23.1142]}}, {"type": "Feature", "properties": {"city": "Qingyuan", "name": "Fengcheng Subdistrict, Qingyuan", "aqi": "172", "pm25": "172", "pm10": "78", "no2": "26", "so2": "6", "o3": "33", "co": "8", "temp": "23"}, "geometry": {"type": "Point", "coordinates": [113.0208, 23.7106]}}, {"type": "Feature", "properties": {"city": "Qingyuan", "name": "Technician college, Qingyuan", "aqi": "172", "pm25": "172", "pm10": "83", "no2": "27", "so2": "6", "o3": "32", "co": "8", "temp": "23"}, "geometry": {"type": "Point", "coordinates": [104.3944, 30.7494]}}, {"type": "Feature", "properties": {"city": "Chaozhou", "name": "City government, Chaozhou", "aqi": "127", "pm25": "127", "pm10": "57", "no2": "13", "so2": "9", "o3": "33", "co": "7", "temp": "21"}, "geometry": {"type": "Point", "coordinates": [116.6183, 23.65889]}}, {"type": "Feature", "properties": {"city": "Yunfu", "name": "x\u012bnsh\u00ec f\u01d4, Yunfu", "aqi": "80", "pm25": "80", "pm10": "40", "no2": "8", "so2": "3", "o3": "50", "co": "6", "temp": "23"}, "geometry": {"type": "Point", "coordinates": [112.0369, 22.9394]}}, {"type": "Feature", "properties": {"city": "Yunfu", "name": "m\u00f9y\u00e1ng, Yunfu", "aqi": "117", "pm25": "117", "pm10": "54", "no2": "13", "so2": "4", "o3": null, "co": "6", "temp": "23"}, "geometry": {"type": "Point", "coordinates": [112.0539, 22.9539]}}, {"type": "Feature", "properties": {"city": "Shantou", "name": "H\u00e1oji\u0101ngzi, Shantou", "aqi": "63", "pm25": "63", "pm10": "29", "no2": "12", "so2": "4", "o3": "30", "co": "8", "temp": "21"}, "geometry": {"type": "Point", "coordinates": [117.0219, 23.42]}}, {"type": "Feature", "properties": {"city": "Shantou", "name": "J\u012bnp\u00edngzi, Shantou", "aqi": "74", "pm25": "74", "pm10": "37", "no2": "16", "so2": "4", "o3": "32", "co": "8", "temp": "21"}, "geometry": {"type": "Point", "coordinates": [117.0219, 23.42]}}, {"type": "Feature", "properties": {"city": "Shantou", "name": "Chaonanzi Station, Shantou", "aqi": "142", "pm25": "142", "pm10": "65", "no2": "16", "so2": "6", "o3": "31", "co": "7", "temp": "21"}, "geometry": {"type": "Point", "coordinates": [116.4019, 23.2536]}}, {"type": "Feature", "properties": {"city": "Shantou", "name": "Ch\u00e9ngh\u01ceizi, Shantou", "aqi": "76", "pm25": "76", "pm10": "45", "no2": "15", "so2": "6", "o3": "31", "co": "6", "temp": "21"}, "geometry": {"type": "Point", "coordinates": [117.0219, 23.42]}}, {"type": "Feature", "properties": {"city": "Shantou", "name": "Ch\u00e1oy\u00e1ngzi, Shantou", "aqi": "70", "pm25": "70", "pm10": "50", "no2": "15", "so2": "4", "o3": "33", "co": "6", "temp": "21"}, "geometry": {"type": "Point", "coordinates": [117.0219, 23.42]}}, {"type": "Feature", "properties": {"city": "Shantou", "name": "L\u00f3ngh\u00fazi, Shantou", "aqi": "68", "pm25": "68", "pm10": "33", "no2": "16", "so2": "4", "o3": "33", "co": "6", "temp": "21"}, "geometry": {"type": "Point", "coordinates": [117.0219, 23.42]}}, {"type": "Feature", "properties": {"city": "Shaoguan", "name": "B\u00ech\u00fa sh\u0101nzhu\u0101ng, Shaoguan", "aqi": "119", "pm25": "119", "pm10": "52", "no2": "23", "so2": "8", "o3": "14", "co": "9", "temp": "17"}, "geometry": {"type": "Point", "coordinates": [114.475, 36.754]}}, {"type": "Feature", "properties": {"city": "Shaoguan", "name": "No.8 middle school, Shaoguan", "aqi": "152", "pm25": "152", "pm10": "57", "no2": "25", "so2": "8", "o3": "16", "co": "14", "temp": "17"}, "geometry": {"type": "Point", "coordinates": [113.5783, 24.7708]}}, {"type": "Feature", "properties": {"city": "Shaoguan", "name": "Forest area, Shaoguan", "aqi": "97", "pm25": "97", "pm10": "58", "no2": "17", "so2": "8", "o3": "20", "co": "12", "temp": "17"}, "geometry": {"type": "Point", "coordinates": [113.598061, 24.795928]}}, {"type": "Feature", "properties": {"city": "Shaoguan", "name": "Qujiang Monitoring Station, Shaoguan", "aqi": "154", "pm25": "154", "pm10": "58", "no2": "22", "so2": "7", "o3": "12", "co": "12", "temp": "17"}, "geometry": {"type": "Point", "coordinates": [113.5970833, 24.68636111]}}, {"type": "Feature", "properties": {"city": "Shaoguan", "name": "Shaoguan University, Shaoguan", "aqi": "162", "pm25": "162", "pm10": "64", "no2": "19", "so2": "10", "o3": "20", "co": "12", "temp": "17"}, "geometry": {"type": "Point", "coordinates": [113.6414, 24.7939]}}, {"type": "Feature", "properties": {"city": "Qingyuan", "name": "Fengcheng Subdistrict, Qingyuan", "aqi": "172", "pm25": "172", "pm10": "78", "no2": "26", "so2": "6", "o3": "33", "co": "8", "temp": "23"}, "geometry": {"type": "Point", "coordinates": [113.0208, 23.7106]}}, {"type": "Feature", "properties": {"city": "Guangzhou", "name": "Guangzhou US Consulate", "aqi": "152", "pm25": "152", "pm10": null, "no2": null, "so2": null, "o3": null, "co": null, "temp": "23"}, "geometry": {"type": "Point", "coordinates": [113.258374, 23.141191]}}, {"type": "Feature", "properties": {"city": "Chengdu", "name": "Chengdu US Consulate", "aqi": "137", "pm25": "137", "pm10": "53", "no2": "28", "so2": "5", "o3": "5", "co": "9", "temp": "11"}, "geometry": {"type": "Point", "coordinates": [104.0670559, 30.6250145]}}, {"type": "Feature", "properties": {"city": "Chengdu", "name": "Jinquan lianghe, Chengdu", "aqi": "144", "pm25": "144", "pm10": "59", "no2": "20", "so2": "8", "o3": "12", "co": "8", "temp": "11"}, "geometry": {"type": "Point", "coordinates": [103.97275, 30.72358333]}}, {"type": "Feature", "properties": {"city": "Chengdu", "name": "Shilidian, Chengdu", "aqi": "158", "pm25": "158", "pm10": "65", "no2": "27", "so2": "7", "o3": "5", "co": "7", "temp": "11"}, "geometry": {"type": "Point", "coordinates": [104.176, 30.6872]}}, {"type": "Feature", "properties": {"city": "Chengdu", "name": "Sanwayao, Chengdu", "aqi": "137", "pm25": "137", "pm10": "63", "no2": "32", "so2": "3", "o3": "4", "co": "9", "temp": "11"}, "geometry": {"type": "Point", "coordinates": [104.079, 30.5706]}}, {"type": "Feature", "properties": {"city": "Chengdu", "name": "Shahepu, Chengdu", "aqi": "151", "pm25": "151", "pm10": "59", "no2": "27", "so2": "4", "o3": "4", "co": "7", "temp": "11"}, "geometry": {"type": "Point", "coordinates": [104.1113889, 30.63]}}, {"type": "Feature", "properties": {"city": "Chengdu", "name": "Lingyansi, Chengdu", "aqi": "127", "pm25": "127", "pm10": "55", "no2": "11", "so2": "4", "o3": "19", "co": "8", "temp": "10"}, "geometry": {"type": "Point", "coordinates": [103.613, 31.0283]}}, {"type": "Feature", "properties": {"city": "Mianyang", "name": "Fuleshan, Mianyang", "aqi": "97", "pm25": "97", "pm10": "49", "no2": "19", "so2": "3", "o3": "5", "co": "6", "temp": "10"}, "geometry": {"type": "Point", "coordinates": [104.7778, 31.4747]}}, {"type": "Feature", "properties": {"city": "Mianyang", "name": "Municipal People's Congress, Mianyang", "aqi": "93", "pm25": "93", "pm10": "55", "no2": "25", "so2": "4", "o3": "3", "co": "9", "temp": "10"}, "geometry": {"type": "Point", "coordinates": [104.7536, 31.4539]}}, {"type": "Feature", "properties": {"city": "Mianyang", "name": "High-tech Zone Water Company, Mianyang", "aqi": "109", "pm25": "109", "pm10": "55", "no2": "26", "so2": "1", "o3": "5", "co": "3", "temp": "10"}, "geometry": {"type": "Point", "coordinates": [104.6717, 31.4656]}}, {"type": "Feature", "properties": {"city": "Mianyang", "name": "No.3 water company, Mianyang", "aqi": "112", "pm25": "112", "pm10": "52", "no2": "20", "so2": "3", "o3": "5", "co": "9", "temp": "10"}, "geometry": {"type": "Point", "coordinates": [104.7283, 31.5072]}}, {"type": "Feature", "properties": {"city": "Deyang", "name": "Dongshan Park, Deyang", "aqi": "137", "pm25": "137", "pm10": "59", "no2": "24", "so2": "3", "o3": "7", "co": "9", "temp": "10"}, "geometry": {"type": "Point", "coordinates": [104.4219, 31.1208]}}, {"type": "Feature", "properties": {"city": "Deyang", "name": "Xixiaoqu, Deyang", "aqi": "142", "pm25": "142", "pm10": "61", "no2": "21", "so2": "3", "o3": "10", "co": "8", "temp": "10"}, "geometry": {"type": "Point", "coordinates": [104.3883, 31.1333]}}, {"type": "Feature", "properties": {"city": "Deyang", "name": "City Procuratorate, Deyang", "aqi": "154", "pm25": "154", "pm10": "80", "no2": "24", "so2": "1", "o3": "6", "co": "9", "temp": "10"}, "geometry": {"type": "Point", "coordinates": [104.4053, 31.1167]}}, {"type": "Feature", "properties": {"city": "Deyang", "name": "Refractory Factory, Deyang", "aqi": "137", "pm25": "137", "pm10": "59", "no2": "20", "so2": "-", "o3": "7", "co": "8", "temp": "10"}, "geometry": {"type": "Point", "coordinates": [104.3539, 31.1108]}}, {"type": "Feature", "properties": {"city": "Panzhihua", "name": "Nongnongping, Panzhihua", "aqi": "34", "pm25": "34", "pm10": "19", "no2": "12", "so2": "9", "o3": "33", "co": "4", "temp": "17"}, "geometry": {"type": "Point", "coordinates": [101.68912, 26.57098]}}, {"type": "Feature", "properties": {"city": "Panzhihua", "name": "Hemenkou, Panzhihua", "aqi": "38", "pm25": "38", "pm10": "20", "no2": "7", "so2": "4", "o3": "36", "co": "3", "temp": "17"}, "geometry": {"type": "Point", "coordinates": [101.5769, 26.5928]}}, {"type": "Feature", "properties": {"city": "Panzhihua", "name": "Bingcaogang, Panzhihua", "aqi": "42", "pm25": "42", "pm10": "17", "no2": "12", "so2": "7", "o3": "28", "co": "6", "temp": "17"}, "geometry": {"type": "Point", "coordinates": [101.7169, 26.585]}}, {"type": "Feature", "properties": {"city": "Panzhihua", "name": "Renhe, Panzhihua", "aqi": "34", "pm25": "17", "pm10": "9", "no2": "7", "so2": "6", "o3": "34", "co": "3", "temp": "17"}, "geometry": {"type": "Point", "coordinates": [101.7453, 26.5017]}}, {"type": "Feature", "properties": {"city": "Yibin", "name": "Shima Middle School, Yibin", "aqi": "144", "pm25": "144", "pm10": "62", "no2": "10", "so2": "3", "o3": "18", "co": "6", "temp": "11"}, "geometry": {"type": "Point", "coordinates": [104.5969, 28.8194]}}, {"type": "Feature", "properties": {"city": "Yibin", "name": "Municipal party committee, Yibin", "aqi": "152", "pm25": "152", "pm10": "66", "no2": "12", "so2": "2", "o3": "16", "co": "6", "temp": "11"}, "geometry": {"type": "Point", "coordinates": [104.6225, 28.76611]}}, {"type": "Feature", "properties": {"city": "Yibin", "name": "No. 4 middle school, Yibin", "aqi": "149", "pm25": "149", "pm10": "57", "no2": "15", "so2": "2", "o3": "17", "co": "7", "temp": "11"}, "geometry": {"type": "Point", "coordinates": [104.6061, 28.7867]}}, {"type": "Feature", "properties": {"city": "Yibin", "name": "City government, Yibin", "aqi": "155", "pm25": "155", "pm10": "61", "no2": "10", "so2": "4", "o3": "15", "co": "6", "temp": "8"}, "geometry": {"type": "Point", "coordinates": [104.6417, 28.76389]}}, {"type": "Feature", "properties": {"city": "Yibin", "name": "Huangjinzui, Yibin", "aqi": "172", "pm25": "172", "pm10": "71", "no2": "14", "so2": "3", "o3": "5", "co": "9", "temp": "10"}, "geometry": {"type": "Point", "coordinates": [104.5761, 28.71583]}}, {"type": "Feature", "properties": {"city": "Zigong", "name": "Datang Hill, Zigong", "aqi": "129", "pm25": "129", "pm10": "54", "no2": "11", "so2": "2", "o3": "23", "co": "6", "temp": "12"}, "geometry": {"type": "Point", "coordinates": [104.7547, 29.3628]}}, {"type": "Feature", "properties": {"city": "Zigong", "name": "Chunhua Road, Zigong", "aqi": "144", "pm25": "144", "pm10": "54", "no2": "10", "so2": "3", "o3": "21", "co": "6", "temp": "12"}, "geometry": {"type": "Point", "coordinates": [104.7692, 29.3411]}}, {"type": "Feature", "properties": {"city": "Luzhou", "name": "Jiushi Hill, Luzhou", "aqi": "104", "pm25": "104", "pm10": "61", "no2": "12", "so2": "4", "o3": "9", "co": "6", "temp": "9"}, "geometry": {"type": "Point", "coordinates": [105.4306, 28.9583]}}, {"type": "Feature", "properties": {"city": "Luzhou", "name": "Xiaoshishang Port, Luzhou", "aqi": "151", "pm25": "151", "pm10": "58", "no2": "14", "so2": "3", "o3": "5", "co": "7", "temp": "9"}, "geometry": {"type": "Point", "coordinates": [105.4436, 28.9026]}}, {"type": "Feature", "properties": {"city": "Luzhou", "name": "Lantianxian Bridge, Luzhou", "aqi": "127", "pm25": "127", "pm10": "51", "no2": "11", "so2": "3", "o3": "9", "co": "8", "temp": "9"}, "geometry": {"type": "Point", "coordinates": [105.4322, 28.8558]}}, {"type": "Feature", "properties": {"city": "Luzhou", "name": "City Environment Monitoring Station, Luzhou", "aqi": "147", "pm25": "147", "pm10": "57", "no2": "18", "so2": "3", "o3": "5", "co": "6", "temp": "9"}, "geometry": {"type": "Point", "coordinates": [105.4322, 28.8833]}}, {"type": "Feature", "properties": {"city": "Nanchong", "name": "X\u012bsh\u0101n scenic area, Nanchong", "aqi": "139", "pm25": "139", "pm10": "54", "no2": "13", "so2": "10", "o3": "12", "co": "6", "temp": "10"}, "geometry": {"type": "Point", "coordinates": [106.056, 30.8064]}}, {"type": "Feature", "properties": {"city": "Nanchong", "name": "City Committee, Nanchong", "aqi": "152", "pm25": "152", "pm10": "62", "no2": "9", "so2": "2", "o3": "12", "co": "7", "temp": "10"}, "geometry": {"type": "Point", "coordinates": [106.0789, 30.8023]}}, {"type": "Feature", "properties": {"city": "Nanchong", "name": "Refinery Factory, Nanchong", "aqi": "156", "pm25": "156", "pm10": "60", "no2": "18", "so2": "4", "o3": "9", "co": "6", "temp": "9"}, "geometry": {"type": "Point", "coordinates": [106.1031, 30.8217]}}, {"type": "Feature", "properties": {"city": "Nanchong", "name": "Gaoping District Monitoring Station, Nanchong", "aqi": "155", "pm25": "155", "pm10": "76", "no2": "17", "so2": "7", "o3": "5", "co": "7", "temp": "10"}, "geometry": {"type": "Point", "coordinates": [106.1064, 30.7856]}}, {"type": "Feature", "properties": {"city": "Nanchong", "name": "Jialing District EPB, Nanchong", "aqi": "142", "pm25": "142", "pm10": "56", "no2": "12", "so2": "3", "o3": "5", "co": "7", "temp": "10"}, "geometry": {"type": "Point", "coordinates": [106.0642, 30.7636]}}, {"type": "Feature", "properties": {"city": "Nanchong", "name": "City Environmental Monitoring Station, Nanchong", "aqi": "154", "pm25": "154", "pm10": "58", "no2": "10", "so2": "3", "o3": "14", "co": "8", "temp": "10"}, "geometry": {"type": "Point", "coordinates": [106.1087, 30.8388]}}, {"type": "Feature", "properties": {"city": "Najiang", "name": "City Monitoring Station, Neijiang", "aqi": "152", "pm25": "152", "pm10": "58", "no2": "11", "so2": "2", "o3": "18", "co": "9", "temp": "12"}, "geometry": {"type": "Point", "coordinates": [105.0331, 29.5953]}}, {"type": "Feature", "properties": {"city": "Najiang", "name": "Dongxing District Government , Neijiang", "aqi": "154", "pm25": "154", "pm10": "55", "no2": "15", "so2": "2", "o3": "15", "co": "10", "temp": "12"}, "geometry": {"type": "Point", "coordinates": [105.0717, 29.5947]}}, {"type": "Feature", "properties": {"city": "Najiang", "name": "No 2 middle school, Neijiang", "aqi": "114", "pm25": "114", "pm10": "53", "no2": "14", "so2": "3", "o3": "15", "co": "9", "temp": "12"}, "geometry": {"type": "Point", "coordinates": [105.0653, 29.5817]}}, {"type": "Feature", "properties": {"city": "Najiang", "name": "n\u00e8iji\u0101ng r\u00ecb\u00e0o sh\u00e8, Neijiang", "aqi": "151", "pm25": "151", "pm10": "59", "no2": "13", "so2": "2", "o3": "17", "co": "7", "temp": "12"}, "geometry": {"type": "Point", "coordinates": [104.660277, 29.5366666]}}, {"type": "Feature", "properties": {"city": "Suining", "name": "sh\u00edx\u012bh\u00e0o, Suining", "aqi": "153", "pm25": "153", "pm10": "60", "no2": "15", "so2": "4", "o3": "6", "co": "8", "temp": "10"}, "geometry": {"type": "Point", "coordinates": [105.612222, 30.5188888]}}, {"type": "Feature", "properties": {"city": "Suining", "name": "City Monitoring Station, Suining", "aqi": "129", "pm25": "129", "pm10": "53", "no2": "18", "so2": "3", "o3": "3", "co": "9", "temp": "10"}, "geometry": {"type": "Point", "coordinates": [105.68, 30.6133]}}, {"type": "Feature", "properties": {"city": "Suining", "name": "Administrative center , Suining", "aqi": "152", "pm25": "152", "pm10": "61", "no2": "12", "so2": "5", "o3": "7", "co": "7", "temp": "10"}, "geometry": {"type": "Point", "coordinates": [105.8161, 30.6347]}}, {"type": "Feature", "properties": {"city": "Suining", "name": "m\u011bi n\u00edng sh\u00edp\u01d0n g\u014dngs\u012b, Suining", "aqi": "122", "pm25": "122", "pm10": "56", "no2": "18", "so2": "6", "o3": "4", "co": "8", "temp": "10"}, "geometry": {"type": "Point", "coordinates": [105.612222, 30.5188888]}}, {"type": "Feature", "properties": {"city": "Leshan", "name": "ni\u00fa'\u011br qi\u00e1o, Leshan", "aqi": "160", "pm25": "160", "pm10": "71", "no2": "20", "so2": "3", "o3": "10", "co": "9", "temp": "-4"}, "geometry": {"type": "Point", "coordinates": [103.57, 29.7366666]}}, {"type": "Feature", "properties": {"city": "Leshan", "name": "sh\u00ec d\u00ec s\u0101n shu\u01d0 ch\u01ceng, Leshan", "aqi": "168", "pm25": "168", "pm10": "87", "no2": "22", "so2": "3", "o3": "6", "co": "8", "temp": "-4"}, "geometry": {"type": "Point", "coordinates": [140.0035584, 35.4496535]}}, {"type": "Feature", "properties": {"city": "Leshan", "name": "City Monitoring Station, Leshan", "aqi": "163", "pm25": "163", "pm10": "72", "no2": "20", "so2": "5", "o3": "11", "co": "8", "temp": "-4"}, "geometry": {"type": "Point", "coordinates": [103.757, 29.5634]}}, {"type": "Feature", "properties": {"city": "Leshan", "name": "Leshan Giant Buddha Scenic Area , Leshan", "aqi": "158", "pm25": "158", "pm10": "68", "no2": "20", "so2": "4", "o3": "10", "co": "7", "temp": "-4"}, "geometry": {"type": "Point", "coordinates": [103.7705, 29.5467]}}, {"type": "Feature", "properties": {"city": "Meishan", "name": "Bureau of Meteorology, Meishan", "aqi": "163", "pm25": "163", "pm10": "81", "no2": "28", "so2": "6", "o3": "4", "co": "11", "temp": "11"}, "geometry": {"type": "Point", "coordinates": [103.8416, 30.0874]}}, {"type": "Feature", "properties": {"city": "Meishan", "name": "Xuguang Community , Meishan", "aqi": "169", "pm25": "169", "pm10": "74", "no2": "24", "so2": "5", "o3": "5", "co": "11", "temp": "11"}, "geometry": {"type": "Point", "coordinates": [103.8495, 30.0691]}}, {"type": "Feature", "properties": {"city": "Meishan", "name": "City Monitoring Station, Meishan", "aqi": "159", "pm25": "159", "pm10": "72", "no2": "25", "so2": "5", "o3": "5", "co": "11", "temp": "11"}, "geometry": {"type": "Point", "coordinates": [103.8341, 30.062]}}, {"type": "Feature", "properties": {"city": "Ziyang", "name": "li\u00e1nhu\u0101 sh\u0101n, Ziyang", "aqi": "91", "pm25": "91", "pm10": "40", "no2": "7", "so2": "3", "o3": "18", "co": "5", "temp": "12"}, "geometry": {"type": "Point", "coordinates": [104.539444, 30.4141666]}}, {"type": "Feature", "properties": {"city": "Ziyang", "name": "Ziyang middle school, Ziyang", "aqi": "102", "pm25": "102", "pm10": "50", "no2": "12", "so2": "3", "o3": "16", "co": "7", "temp": "12"}, "geometry": {"type": "Point", "coordinates": [104.6356, 30.1506]}}, {"type": "Feature", "properties": {"city": "Ziyang", "name": "s\u00ecs\u0101ny\u012b ch\u01ceng, Ziyang", "aqi": "97", "pm25": "97", "pm10": "51", "no2": "19", "so2": "3", "o3": "13", "co": "6", "temp": "12"}, "geometry": {"type": "Point", "coordinates": [104.539444, 30.4141666]}}, {"type": "Feature", "properties": {"city": "Ziyang", "name": "sh\u012bf\u00e0n xi\u00e0o, Ziyang", "aqi": "99", "pm25": "99", "pm10": "44", "no2": "14", "so2": "3", "o3": "15", "co": "6", "temp": "12"}, "geometry": {"type": "Point", "coordinates": [104.539444, 30.4141666]}}, {"type": "Feature", "properties": {"city": "Ziyang", "name": "q\u016b f\u01ceyu\u00e0n, Ziyang", "aqi": "107", "pm25": "107", "pm10": "44", "no2": "16", "so2": "3", "o3": "16", "co": "6", "temp": "12"}, "geometry": {"type": "Point", "coordinates": [104.539444, 30.4141666]}}, {"type": "Feature", "properties": {"city": "Guangan", "name": "Xiaoping's former residence , Guangan", "aqi": "127", "pm25": "127", "pm10": "52", "no2": "12", "so2": "3", "o3": "5", "co": "7", "temp": "10"}, "geometry": {"type": "Point", "coordinates": [106.631, 30.518]}}, {"type": "Feature", "properties": {"city": "Guangan", "name": "Municipal party committee, Guangan", "aqi": "170", "pm25": "170", "pm10": "77", "no2": "15", "so2": "3", "o3": "3", "co": "8", "temp": "10"}, "geometry": {"type": "Point", "coordinates": [106.6303, 30.4576]}}, {"type": "Feature", "properties": {"city": "Guangan", "name": "y\u01d2uy\u00ec zh\u014dngxu\u00e9, Guangan", "aqi": "156", "pm25": "156", "pm10": "71", "no2": "15", "so2": "4", "o3": "3", "co": "10", "temp": "10"}, "geometry": {"type": "Point", "coordinates": [106.631, 30.518]}}, {"type": "Feature", "properties": {"city": "Guangan", "name": "gu\u01cengdi\u00e0n hu\u0101yu\u00e1n, Guangan", "aqi": "152", "pm25": "152", "pm10": "75", "no2": "19", "so2": "4", "o3": "3", "co": "10", "temp": "10"}, "geometry": {"type": "Point", "coordinates": [106.631, 30.518]}}, {"type": "Feature", "properties": {"city": "Yaan", "name": "Daxing 526, Yaan", "aqi": "153", "pm25": "153", "pm10": "57", "no2": "7", "so2": "4", "o3": "17", "co": "6", "temp": "8"}, "geometry": {"type": "Point", "coordinates": [103.009, 30.0125]}}, {"type": "Feature", "properties": {"city": "Yaan", "name": "Jianan plant, Yaan", "aqi": "155", "pm25": "155", "pm10": "56", "no2": "17", "so2": "4", "o3": "9", "co": "9", "temp": "8"}, "geometry": {"type": "Point", "coordinates": [103.0013, 29.9899]}}, {"type": "Feature", "properties": {"city": "Yaan", "name": "City government, Yaan", "aqi": "104", "pm25": "104", "pm10": "45", "no2": "12", "so2": "4", "o3": "7", "co": "8", "temp": "8"}, "geometry": {"type": "Point", "coordinates": [103.0109, 29.9834]}}, {"type": "Feature", "properties": {"city": "Yaan", "name": "Sichuan Agricultural University, Yaan", "aqi": "107", "pm25": "107", "pm10": "44", "no2": "10", "so2": "4", "o3": "13", "co": "7", "temp": "8"}, "geometry": {"type": "Point", "coordinates": [103.0001, 29.9816]}}, {"type": "Feature", "properties": {"city": "Dazhou", "name": "Dazhou Technical College, Dazhou", "aqi": "155", "pm25": "155", "pm10": "79", "no2": "23", "so2": "13", "o3": "13", "co": "6", "temp": "12"}, "geometry": {"type": "Point", "coordinates": [107.5272, 31.2797]}}, {"type": "Feature", "properties": {"city": "Dazhou", "name": "City Environmental Monitoring Station, Dazhou", "aqi": "153", "pm25": "153", "pm10": "92", "no2": "32", "so2": "9", "o3": "22", "co": "7", "temp": "12"}, "geometry": {"type": "Point", "coordinates": [107.525, 31.215]}}, {"type": "Feature", "properties": {"city": "Dazhou", "name": "f\u00e8nghu\u00e1ng district, Dazhou", "aqi": "163", "pm25": "163", "pm10": "80", "no2": "24", "so2": "5", "o3": "9", "co": "7", "temp": "12"}, "geometry": {"type": "Point", "coordinates": [120.9092, 40.7136]}}, {"type": "Feature", "properties": {"city": "Dazhou", "name": "d\u00e1xi\u00e0n j\u012bgu\u0101n hotel, Dazhou", "aqi": "159", "pm25": "159", "pm10": "83", "no2": "21", "so2": "11", "o3": "18", "co": "13", "temp": "12"}, "geometry": {"type": "Point", "coordinates": [107.5069, 31.1956]}}, {"type": "Feature", "properties": {"city": "Dazhou", "name": "Civic Center, Dazhou", "aqi": "163", "pm25": "163", "pm10": "87", "no2": "24", "so2": "3", "o3": "9", "co": "11", "temp": "12"}, "geometry": {"type": "Point", "coordinates": [107.4611, 31.2058]}}, {"type": "Feature", "properties": {"city": "Guangyuan", "name": "Heishipo, Guangyuan", "aqi": "149", "pm25": "149", "pm10": "51", "no2": "11", "so2": "4", "o3": "7", "co": "5", "temp": "9"}, "geometry": {"type": "Point", "coordinates": [105.8945, 32.4535]}}, {"type": "Feature", "properties": {"city": "Guangyuan", "name": "Old Town, Guangyuan", "aqi": "78", "pm25": "78", "pm10": "34", "no2": "12", "so2": "2", "o3": "14", "co": "6", "temp": "11"}, "geometry": {"type": "Point", "coordinates": [105.8242, 32.4429]}}, {"type": "Feature", "properties": {"city": "Guangyuan", "name": "Nanba, Guangyuan", "aqi": "65", "pm25": "65", "pm10": "42", "no2": "12", "so2": "5", "o3": "13", "co": "3", "temp": "11"}, "geometry": {"type": "Point", "coordinates": [105.8153, 32.4246]}}, {"type": "Feature", "properties": {"city": "Guangyuan", "name": "Monitoring station, Guangyuan", "aqi": "46", "pm25": "46", "pm10": "39", "no2": "7", "so2": "3", "o3": "21", "co": "6", "temp": "11"}, "geometry": {"type": "Point", "coordinates": [105.8624, 32.4285]}}, {"type": "Feature", "properties": {"city": "Meishan", "name": "m\u00e1 y\u00ed gu\u0101n, Meishan", "aqi": "155", "pm25": "155", "pm10": "66", "no2": "26", "so2": "4", "o3": "7", "co": "7", "temp": "11"}, "geometry": {"type": "Point", "coordinates": [103.366944, 29.9052777]}}, {"type": "Feature", "properties": {"city": "Bazhong", "name": "City EPA, Bazhong", "aqi": "127", "pm25": "127", "pm10": "58", "no2": "20", "so2": "3", "o3": "3", "co": "10", "temp": "11"}, "geometry": {"type": "Point", "coordinates": [106.7389, 31.8711]}}, {"type": "Feature", "properties": {"city": "Bazhong", "name": "High School, Bazhong", "aqi": "151", "pm25": "151", "pm10": "61", "no2": "19", "so2": "4", "o3": "2", "co": "10", "temp": "11"}, "geometry": {"type": "Point", "coordinates": [106.7594, 31.8531]}}, {"type": "Feature", "properties": {"city": "Abazhou", "name": "State Institute of Agricultural Science, Ngawa Zong", "aqi": "38", "pm25": "38", "pm10": "27", "no2": "2", "so2": "5", "o3": "29", "co": "6", "temp": "10"}, "geometry": {"type": "Point", "coordinates": [102.1755, 31.9286]}}, {"type": "Feature", "properties": {"city": "Abazhou", "name": "State Stations, Ngawa Zong", "aqi": "34", "pm25": "34", "pm10": "10", "no2": "6", "so2": "3", "o3": "32", "co": "10", "temp": "10"}, "geometry": {"type": "Point", "coordinates": [102.2218, 31.9025]}}, {"type": "Feature", "properties": {"city": "Abazhou", "name": "Mashi primary school, Ngawa Zong", "aqi": "42", "pm25": "42", "pm10": "10", "no2": "6", "so2": "7", "o3": "34", "co": "6", "temp": "10"}, "geometry": {"type": "Point", "coordinates": [102.2402, 31.8934]}}, {"type": "Feature", "properties": {"city": "Ganzi", "name": "ji\u0101ngj\u016bn qi\u00e1o, Garz\u00ea Zong", "aqi": "53", "pm25": "53", "pm10": "26", "no2": "5", "so2": "1", "o3": "29", "co": "3", "temp": "6"}, "geometry": {"type": "Point", "coordinates": [101.708333, 32.9069444]}}, {"type": "Feature", "properties": {"city": "Ganzi", "name": "shu\u01d0 qi\u00e1o zi, Garz\u00ea Zong", "aqi": "59", "pm25": "59", "pm10": "33", "no2": "8", "so2": "8", "o3": "11", "co": "4", "temp": "6"}, "geometry": {"type": "Point", "coordinates": [101.708333, 32.9069444]}}, {"type": "Feature", "properties": {"city": "Liangshan", "name": "q\u012bngl\u00f3ng s\u00ec, Liangshan", "aqi": "42", "pm25": "42", "pm10": "20", "no2": "3", "so2": "5", "o3": "41", "co": "5", "temp": "20"}, "geometry": {"type": "Point", "coordinates": [102.5075, 28.6297222]}}, {"type": "Feature", "properties": {"city": "Liangshan", "name": "Qionghai Hotel, Liangshan", "aqi": "41", "pm25": "38", "pm10": "22", "no2": "3", "so2": "8", "o3": "41", "co": "3", "temp": "20"}, "geometry": {"type": "Point", "coordinates": [102.2714, 27.8408]}}, {"type": "Feature", "properties": {"city": "Liangshan", "name": "Xichang City Hall, Liangshan", "aqi": "50", "pm25": "50", "pm10": "29", "no2": "5", "so2": "9", "o3": "39", "co": "2", "temp": "20"}, "geometry": {"type": "Point", "coordinates": [102.2689, 27.8847]}}, {"type": "Feature", "properties": {"city": "Liangshan", "name": "Liangshan Prefecture Government, Liangshan", "aqi": "55", "pm25": "55", "pm10": "29", "no2": "6", "so2": "7", "o3": "38", "co": "4", "temp": "20"}, "geometry": {"type": "Point", "coordinates": [102.2625, 27.8978]}}, {"type": "Feature", "properties": {"city": "Liangshan", "name": "ch\u00e1ng'\u0101n, Liangshan", "aqi": "53", "pm25": "53", "pm10": "40", "no2": "6", "so2": "9", "o3": "39", "co": "5", "temp": "20"}, "geometry": {"type": "Point", "coordinates": [102.5075, 28.6297222]}}, {"type": "Feature", "properties": {"city": "Panzhihua", "name": "sishi middle school, Panzhihua", "aqi": "85", "pm25": "85", "pm10": "49", "no2": "10", "so2": "7", "o3": "30", "co": "6", "temp": "17"}, "geometry": {"type": "Point", "coordinates": [101.7227, 26.567]}}, {"type": "Feature", "properties": {"city": "Chengdu", "name": "Junping Street, Chengdu", "aqi": "117", "pm25": "117", "pm10": "59", "no2": "24", "so2": "7", "o3": "8", "co": "6", "temp": "11"}, "geometry": {"type": "Point", "coordinates": [104.054, 30.6578]}}, {"type": "Feature", "properties": {"city": "Chengdu", "name": "D\u00e0sh\u00ed x\u012b l\u00f9, Chengdu", "aqi": "151", "pm25": "151", "pm10": "78", "no2": "24", "so2": "7", "o3": "7", "co": "5", "temp": "11"}, "geometry": {"type": "Point", "coordinates": [104.25266, 30.88759]}}, {"type": "Feature", "properties": {"city": "Guangan", "name": "b\u011bich\u00e9n xi\u01ceoxu\u00e9, Guangan", "aqi": "152", "pm25": "152", "pm10": "69", "no2": "22", "so2": "4", "o3": "2", "co": "10", "temp": "10"}, "geometry": {"type": "Point", "coordinates": [106.631, 30.518]}}, {"type": "Feature", "properties": {"city": "Bazhong", "name": "Su Ping Shan, Bazhong", "aqi": "132", "pm25": "132", "pm10": "53", "no2": "15", "so2": "2", "o3": "7", "co": "6", "temp": "11"}, "geometry": {"type": "Point", "coordinates": [106.7513889, 31.87888889]}}, {"type": "Feature", "properties": {"city": "Bazhong", "name": "Vocational high school, Bazhong", "aqi": "154", "pm25": "154", "pm10": "82", "no2": "20", "so2": "4", "o3": "2", "co": "12", "temp": "11"}, "geometry": {"type": "Point", "coordinates": [106.7619444, 31.85805556]}}, {"type": "Feature", "properties": {"city": "Leshan", "name": "\u82b1\u6e56\u6e7e, Leshan", "aqi": "162", "pm25": "162", "pm10": "74", "no2": "22", "so2": "4", "o3": "8", "co": "7", "temp": "-4"}, "geometry": {"type": "Point", "coordinates": [103.7705, 29.5467]}}, {"type": "Feature", "properties": {"city": "Zigong", "name": "\u9752\u6760\u6797\u8def, Zigong", "aqi": "129", "pm25": "129", "pm10": "51", "no2": "14", "so2": "3", "o3": "22", "co": "8", "temp": "12"}, "geometry": {"type": "Point", "coordinates": [104.7228, 29.33972]}}, {"type": "Feature", "properties": {"city": "Zigong", "name": "\u6a80\u6728\u6797\u4f53\u80b2\u9986, Zigong", "aqi": "122", "pm25": "122", "pm10": "51", "no2": "10", "so2": "5", "o3": "23", "co": "6", "temp": "12"}, "geometry": {"type": "Point", "coordinates": [104.7778, 29.36028]}}, {"type": "Feature", "properties": {"city": "Chengdu", "name": "\u9f99\u6cc9\u9a7f\u533a\u533a\u653f\u5e9c, Chengdu", "aqi": "164", "pm25": "164", "pm10": "75", "no2": "34", "so2": "6", "o3": "2", "co": "9", "temp": "11"}, "geometry": {"type": "Point", "coordinates": [104.2725, 30.5589]}}, {"type": "Feature", "properties": {"city": "Meishan", "name": "City committee communist party school, Meishan", "aqi": "162", "pm25": "162", "pm10": "72", "no2": "26", "so2": "4", "o3": "5", "co": "11", "temp": "11"}, "geometry": {"type": "Point", "coordinates": [103.8578, 30.0744]}}, {"type": "Feature", "properties": {"city": "Meishan", "name": "\u533a\u4eba\u793e\u5c40, Meishan", "aqi": "163", "pm25": "163", "pm10": "71", "no2": "27", "so2": "5", "o3": "4", "co": "12", "temp": "11"}, "geometry": {"type": "Point", "coordinates": [103.8286, 30.0561]}}, {"type": "Feature", "properties": {"city": "Bazhong", "name": "\u4e3d\u9633\u82b1\u56ed, Bazhong", "aqi": "154", "pm25": "154", "pm10": "66", "no2": "21", "so2": "5", "o3": "2", "co": "12", "temp": "11"}, "geometry": {"type": "Point", "coordinates": [106.7658, 31.8542]}}, {"type": "Feature", "properties": {"city": "Bazhong", "name": "\u5723\u6cc9\u6c34\u52a1\u516c\u53f8, Bazhong", "aqi": "112", "pm25": "112", "pm10": "54", "no2": "19", "so2": "2", "o3": "2", "co": "8", "temp": "11"}, "geometry": {"type": "Point", "coordinates": [106.7417, 31.8653]}}, {"type": "Feature", "properties": {"city": "Panzhihua", "name": "Panzhihua Central Hospital, Panzhihua", "aqi": "42", "pm25": "42", "pm10": "30", "no2": "3", "so2": "5", "o3": "30", "co": "2", "temp": "17"}, "geometry": {"type": "Point", "coordinates": [101.714061, 26.547046]}}, {"type": "Feature", "properties": {"city": "Chengdu", "name": "City Youth Activity Center, Chengdu", "aqi": "157", "pm25": "157", "pm10": "71", "no2": "24", "so2": "7", "o3": "5", "co": "8", "temp": "11"}, "geometry": {"type": "Point", "coordinates": [104.05409, 30.71012]}}, {"type": "Feature", "properties": {"city": "Chengdu", "name": "Lido Garden, Chengdu", "aqi": "137", "pm25": "137", "pm10": "57", "no2": "28", "so2": "4", "o3": "6", "co": "9", "temp": "11"}, "geometry": {"type": "Point", "coordinates": [104.03461, 30.62862]}}, {"type": "Feature", "properties": {"city": "Chengdu", "name": "Yulin, Chengdu", "aqi": "151", "pm25": "151", "pm10": "59", "no2": "29", "so2": "5", "o3": "5", "co": "6", "temp": "11"}, "geometry": {"type": "Point", "coordinates": [104.05846, 30.62729]}}, {"type": "Feature", "properties": {"city": "Chengdu", "name": "xi\u00f3ngm\u0101o j\u012bd\u00ec, Chengdu", "aqi": "147", "pm25": "147", "pm10": "59", "no2": "20", "so2": "7", "o3": "7", "co": "7", "temp": "11"}, "geometry": {"type": "Point", "coordinates": [104.25266, 30.88759]}}, {"type": "Feature", "properties": {"city": "Chengdu", "name": "Huayang, Chengdu", "aqi": "155", "pm25": "155", "pm10": "67", "no2": "26", "so2": "3", "o3": "3", "co": "11", "temp": "11"}, "geometry": {"type": "Point", "coordinates": [104.0578, 30.5225]}}, {"type": "Feature", "properties": {"city": "Chengdu", "name": "p\u00ed xi\u00e0n d\u01cengxi\u00e0o, Chengdu", "aqi": "97", "pm25": "97", "pm10": "60", "no2": "15", "so2": "6", "o3": "19", "co": "4", "temp": "11"}, "geometry": {"type": "Point", "coordinates": [104.25266, 30.88759]}}, {"type": "Feature", "properties": {"city": "Chengdu", "name": "ji\u00e0n h\u00e1ng ji\u0101sh\u01d4 l\u00f3u, Chengdu", "aqi": "102", "pm25": "102", "pm10": "42", "no2": "12", "so2": "3", "o3": "22", "co": "8", "temp": "11"}, "geometry": {"type": "Point", "coordinates": [104.25266, 30.88759]}}, {"type": "Feature", "properties": {"city": "Chengdu", "name": "Pengzhou EPA, Chengdu", "aqi": "132", "pm25": "132", "pm10": "62", "no2": "14", "so2": "4", "o3": "14", "co": "7", "temp": "10"}, "geometry": {"type": "Point", "coordinates": [103.9481, 30.99694]}}, {"type": "Feature", "properties": {"city": "Chengdu", "name": "Qionglai water companies, Chengdu", "aqi": "122", "pm25": "122", "pm10": "55", "no2": "28", "so2": "4", "o3": "18", "co": "8", "temp": "11"}, "geometry": {"type": "Point", "coordinates": [103.438333, 30.4175]}}, {"type": "Feature", "properties": {"city": "Chengdu", "name": "Chong City Xingzhi Middle School, Chengdu", "aqi": "154", "pm25": "154", "pm10": "65", "no2": "10", "so2": "4", "o3": "16", "co": "6", "temp": "11"}, "geometry": {"type": "Point", "coordinates": [103.6742, 30.62722]}}, {"type": "Feature", "properties": {"city": "Chengdu", "name": "J\u012bn Zh\u014dngw\u00e0i Experimental School, Chengdu", "aqi": "117", "pm25": "117", "pm10": "51", "no2": "23", "so2": "2", "o3": "6", "co": "7", "temp": "10"}, "geometry": {"type": "Point", "coordinates": [103.821666, 30.4133333]}}, {"type": "Feature", "properties": {"city": "Chengdu", "name": "Xinjin Secondary Foreign Language Experimental School, Chengdu", "aqi": "104", "pm25": "104", "pm10": "45", "no2": "13", "so2": "4", "o3": "17", "co": "4", "temp": "11"}, "geometry": {"type": "Point", "coordinates": [103.821666, 30.4133333]}}, {"type": "Feature", "properties": {"city": "Chengdu", "name": "H\u00f3ngx\u012bng Power Station, Chengdu", "aqi": "104", "pm25": "104", "pm10": "46", "no2": "12", "so2": "6", "o3": "19", "co": "8", "temp": "11"}, "geometry": {"type": "Point", "coordinates": [103.882777, 30.8063888]}}, {"type": "Feature", "properties": {"city": "Chengdu", "name": "Jincheng Lake, Chengdu", "aqi": "132", "pm25": "132", "pm10": "54", "no2": "28", "so2": "3", "o3": "5", "co": "9", "temp": "11"}, "geometry": {"type": "Point", "coordinates": [104.05016, 30.57335]}}, {"type": "Feature", "properties": {"city": "Chengdu", "name": "West River, Chengdu", "aqi": "158", "pm25": "158", "pm10": "84", "no2": "28", "so2": "5", "o3": "4", "co": "9", "temp": "11"}, "geometry": {"type": "Point", "coordinates": [104.23287, 30.65152]}}, {"type": "Feature", "properties": {"city": "Chengdu", "name": "Qingbaijiang library, Chengdu", "aqi": "95", "pm25": "95", "pm10": "65", "no2": "20", "so2": "4", "o3": "8", "co": "6", "temp": "10"}, "geometry": {"type": "Point", "coordinates": [104.2467, 30.88111]}}, {"type": "Feature", "properties": {"city": "Chengdu", "name": "Xindu Local Taxation Bureau, Chengdu", "aqi": "149", "pm25": "149", "pm10": "59", "no2": "23", "so2": "11", "o3": "11", "co": "7", "temp": "10"}, "geometry": {"type": "Point", "coordinates": [104.1661, 30.82667]}}, {"type": "Feature", "properties": {"city": "Chengdu", "name": "Wenjiang Riverside Road, Chengdu", "aqi": "152", "pm25": "152", "pm10": "59", "no2": "19", "so2": "6", "o3": "14", "co": "7", "temp": "11"}, "geometry": {"type": "Point", "coordinates": [103.8453, 30.69917]}}, {"type": "Feature", "properties": {"city": "Chengdu", "name": "Shuangliu earthquake disaster reduction bureau, Chengdu", "aqi": "134", "pm25": "134", "pm10": "59", "no2": "17", "so2": "5", "o3": "15", "co": "8", "temp": "11"}, "geometry": {"type": "Point", "coordinates": [103.9014, 30.59611]}}, {"type": "Feature", "properties": {"city": "Chengdu", "name": "Pujiang County Party School, Chengdu", "aqi": "114", "pm25": "114", "pm10": "55", "no2": "13", "so2": "6", "o3": "15", "co": "7", "temp": "8"}, "geometry": {"type": "Point", "coordinates": [103.527777, 30.2005555]}}, {"type": "Feature", "properties": {"city": "Chengdu", "name": "Dujiangyan EPB, Chengdu", "aqi": "154", "pm25": "154", "pm10": "85", "no2": "13", "so2": "3", "o3": "7", "co": "8", "temp": "10"}, "geometry": {"type": "Point", "coordinates": [103.6578, 30.99056]}}, {"type": "Feature", "properties": {"city": "Chengdu", "name": "ji\u01ceny\u00e1ng y\u00ecn\u00e1o l\u00f9, Chengdu", "aqi": "122", "pm25": "122", "pm10": "53", "no2": "24", "so2": "3", "o3": "7", "co": "8", "temp": "11"}, "geometry": {"type": "Point", "coordinates": [104.25266, 30.88759]}}, {"type": "Feature", "properties": {"city": "Chengdu", "name": "Jinbo Road, Chengdu", "aqi": "132", "pm25": "132", "pm10": "66", "no2": "19", "so2": "6", "o3": "7", "co": "10", "temp": "11"}, "geometry": {"type": "Point", "coordinates": [104.0026, 30.6891]}}, {"type": "Feature", "properties": {"city": "Chengdu", "name": "Qingquan Campus, Qingbaijiang Branch, Chengdu Technician College, Chengdu", "aqi": "129", "pm25": "129", "pm10": "52", "no2": "22", "so2": "29", "o3": "4", "co": "9", "temp": "11"}, "geometry": {"type": "Point", "coordinates": [104.3944, 30.7494]}}, {"type": "Feature", "properties": {"city": "Chengdu", "name": "Xinmin Convenience Service Station, Chengdu", "aqi": "149", "pm25": "149", "pm10": "59", "no2": "13", "so2": "9", "o3": "17", "co": "7", "temp": "10"}, "geometry": {"type": "Point", "coordinates": [104.10482, 30.90048]}}, {"type": "Feature", "properties": {"city": "Chengdu", "name": "Yongning, Chengdu", "aqi": "132", "pm25": "132", "pm10": "45", "no2": "12", "so2": "5", "o3": "20", "co": "10", "temp": "11"}, "geometry": {"type": "Point", "coordinates": [103.8594, 30.7492]}}, {"type": "Feature", "properties": {"city": "Chengdu", "name": "Shuangliu Yong'an Primary School, Chengdu", "aqi": "153", "pm25": "153", "pm10": "65", "no2": "31", "so2": "6", "o3": "5", "co": "8", "temp": "11"}, "geometry": {"type": "Point", "coordinates": [103.99149, 30.41]}}, {"type": "Feature", "properties": {"city": "Chengdu", "name": "Jintang Samsung University City, Chengdu", "aqi": "158", "pm25": "158", "pm10": "76", "no2": "22", "so2": "3", "o3": "5", "co": "8", "temp": "11"}, "geometry": {"type": "Point", "coordinates": [104.47752, 30.8361]}}, {"type": "Feature", "properties": {"city": "Chengdu", "name": "Hairong Pharmaceutical, Chengdu", "aqi": "152", "pm25": "152", "pm10": "68", "no2": "16", "so2": "3", "o3": "10", "co": "9", "temp": "10"}, "geometry": {"type": "Point", "coordinates": [103.64169, 30.97817]}}, {"type": "Feature", "properties": {"city": "Chengdu", "name": "\u6cb3\u6ee8\u5370\u8c61, Chengdu", "aqi": "147", "pm25": "147", "pm10": "61", "no2": "25", "so2": "4", "o3": "7", "co": "9", "temp": "11"}, "geometry": {"type": "Point", "coordinates": [104.08944, 30.62583]}}, {"type": "Feature", "properties": {"city": "Chengdu", "name": "\u664b\u9633\u6d88\u9632\u7ad9, Chengdu", "aqi": "137", "pm25": "137", "pm10": "66", "no2": "22", "so2": "6", "o3": "9", "co": "9", "temp": "11"}, "geometry": {"type": "Point", "coordinates": [103.99694, 30.66361]}}, {"type": "Feature", "properties": {"city": "Chengdu", "name": "\u674e\u5bb6\u6cb1, Chengdu", "aqi": "151", "pm25": "151", "pm10": "66", "no2": "30", "so2": null, "o3": "4", "co": null, "temp": "11"}, "geometry": {"type": "Point", "coordinates": [104.09238, 30.68694]}}, {"type": "Feature", "properties": {"city": "Chengdu", "name": "\u65b0\u6d25\u6c38\u5546, Chengdu", "aqi": "134", "pm25": "134", "pm10": "56", "no2": "16", "so2": "5", "o3": "18", "co": "6", "temp": "11"}, "geometry": {"type": "Point", "coordinates": [103.79805, 30.40083]}}, {"type": "Feature", "properties": {"city": "Shenyang", "name": "Shenyang US Consulate", "aqi": "208", "pm25": "208", "pm10": "106", "no2": "33", "so2": "15", "o3": "12", "co": "11", "temp": "-8"}, "geometry": {"type": "Point", "coordinates": [123.4267266, 41.7832349]}}, {"type": "Feature", "properties": {"city": "Shenyang", "name": "D\u014dngru\u01cen, Shenyang", "aqi": "183", "pm25": "183", "pm10": "101", "no2": "27", "so2": "15", "o3": "16", "co": "9", "temp": "-8"}, "geometry": {"type": "Point", "coordinates": [123.3783, 41.9228]}}, {"type": "Feature", "properties": {"city": "Shenyang", "name": "Xiaoheyan, Shenyang", "aqi": "196", "pm25": "196", "pm10": "122", "no2": "18", "so2": "10", "o3": "14", "co": "11", "temp": "-8"}, "geometry": {"type": "Point", "coordinates": [123.478, 41.7775]}}, {"type": "Feature", "properties": {"city": "Shenyang", "name": "Taiyuan Street, Shenyang", "aqi": "198", "pm25": "198", "pm10": "106", "no2": "33", "so2": "15", "o3": "12", "co": "11", "temp": "-8"}, "geometry": {"type": "Point", "coordinates": [123.3997, 41.7972]}}, {"type": "Feature", "properties": {"city": "Shenyang", "name": "Liaoning University, Shenyang", "aqi": "197", "pm25": "197", "pm10": "85", "no2": "16", "so2": "3", "o3": "31", "co": "9", "temp": "-8"}, "geometry": {"type": "Point", "coordinates": [123.3783, 41.9228]}}, {"type": "Feature", "properties": {"city": "Dalian", "name": "Ganjingzi, Dalian", "aqi": "161", "pm25": "161", "pm10": "74", "no2": "21", "so2": "8", "o3": "13", "co": "6", "temp": "3"}, "geometry": {"type": "Point", "coordinates": [121.61194444, 38.973888889]}}, {"type": "Feature", "properties": {"city": "Dalian", "name": "Zhoushuizi, Dalian", "aqi": "161", "pm25": "161", "pm10": "80", "no2": "25", "so2": "5", "o3": "5", "co": "11", "temp": "3"}, "geometry": {"type": "Point", "coordinates": [121.565, 38.951111111]}}, {"type": "Feature", "properties": {"city": "Dalian", "name": "Xinghai No 3 station, Dalian", "aqi": "162", "pm25": "162", "pm10": "70", "no2": "20", "so2": "9", "o3": "11", "co": "10", "temp": "3"}, "geometry": {"type": "Point", "coordinates": [121.56388889, 38.885]}}, {"type": "Feature", "properties": {"city": "Dalian", "name": "Qingniwa Bridge, Dalian", "aqi": "182", "pm25": "182", "pm10": "94", "no2": "33", "so2": "9", "o3": "6", "co": "14", "temp": "3"}, "geometry": {"type": "Point", "coordinates": [121.63305556, 38.911944444]}}, {"type": "Feature", "properties": {"city": "Dalian", "name": "Fujiazhuang, Dalian", "aqi": "168", "pm25": "168", "pm10": "71", "no2": "25", "so2": "8", "o3": "14", "co": "14", "temp": "3"}, "geometry": {"type": "Point", "coordinates": [121.625, 38.863888889]}}, {"type": "Feature", "properties": {"city": "Dalian", "name": "Qixianling, Dalian", "aqi": "160", "pm25": "160", "pm10": "76", "no2": "23", "so2": "11", "o3": "14", "co": "11", "temp": "3"}, "geometry": {"type": "Point", "coordinates": [121.51805556, 38.856111111]}}, {"type": "Feature", "properties": {"city": "Dalian", "name": "Lushun, Dalian", "aqi": "168", "pm25": "168", "pm10": "67", "no2": "17", "so2": "6", "o3": "25", "co": "11", "temp": "3"}, "geometry": {"type": "Point", "coordinates": [121.25888889, 38.808055556]}}, {"type": "Feature", "properties": {"city": "Dalian", "name": "Jinzhou, Dalian", "aqi": "151", "pm25": "151", "pm10": "60", "no2": "13", "so2": "8", "o3": "20", "co": "9", "temp": "3"}, "geometry": {"type": "Point", "coordinates": [121.7481, 39.1311]}}, {"type": "Feature", "properties": {"city": "Dalian", "name": "BDA, Dalian", "aqi": "119", "pm25": "119", "pm10": "54", "no2": "16", "so2": "7", "o3": "25", "co": "9", "temp": "3"}, "geometry": {"type": "Point", "coordinates": [121.7769, 39.0511]}}, {"type": "Feature", "properties": {"city": "Dalian", "name": "D&D Port, Dalian", "aqi": "153", "pm25": "153", "pm10": "60", "no2": "15", "so2": "1", "o3": "20", "co": "9", "temp": "3"}, "geometry": {"type": "Point", "coordinates": [121.9769, 39.0631]}}, {"type": "Feature", "properties": {"city": "Panjin", "name": "BDA, Panjin", "aqi": "162", "pm25": "162", "pm10": "61", "no2": "12", "so2": "23", "o3": "30", "co": "10", "temp": "-5"}, "geometry": {"type": "Point", "coordinates": [122.0247, 41.1556]}}, {"type": "Feature", "properties": {"city": "Panjin", "name": "Xinglongtai, Panjin", "aqi": "164", "pm25": "164", "pm10": "64", "no2": "17", "so2": "10", "o3": "24", "co": "9", "temp": "-5"}, "geometry": {"type": "Point", "coordinates": [122.0539, 41.0903]}}, {"type": "Feature", "properties": {"city": "Yingkou", "name": "Xi p\u00e0ot\u00e1i, Yingkou", "aqi": "165", "pm25": "165", "pm10": "69", "no2": "11", "so2": "7", "o3": "28", "co": "7", "temp": "-5"}, "geometry": {"type": "Point", "coordinates": [122.215, 40.6511]}}, {"type": "Feature", "properties": {"city": "Jinzhou", "name": "Nanshan, Jinzhou", "aqi": "124", "pm25": "124", "pm10": "55", "no2": "12", "so2": "8", "o3": "22", "co": "6", "temp": "-3"}, "geometry": {"type": "Point", "coordinates": [121.0986, 41.0781]}}, {"type": "Feature", "properties": {"city": "Jinzhou", "name": "BDA, Jinzhou", "aqi": "185", "pm25": "185", "pm10": "91", "no2": "19", "so2": "11", "o3": "21", "co": "11", "temp": "-3"}, "geometry": {"type": "Point", "coordinates": [121.045, 40.8333]}},